{"features": [{"geometry": {"coordinates": [-61.527534, 16.262299], "type": "Point"}, "properties": {"antenna": "TRM57971.00", "clock": "INTERNAL", "receiver": "SEPT POLARX5", "station": "ABMF"}, "type": "Feature"}, {"geometry": {"coordinates": [47.229212, -19.018306], "type": "Point"}, "properties": {"antenna": "ASH701945G_M", "clock": "INTERNAL", "receiver": "SEPT POLARX5", "station": "ABPO"}, "type": "Feature"}, {"geometry": {"coordinates": [-0.207112, 5.641471], "type": "Point"}, "properties": {"antenna": "JAV_RINGANT_G3T", "clock": "INTERNAL", "receiver": "JAVAD TR_G3TH", "station": "ACRG"}, "type": "Feature"}, {"geometry": {"coordinates": [38.766302, 9.035134], "type": "Point"}, "properties": {"antenna": "TRM29659.00", "clock": "INTERNAL ", "receiver": "JPS LEGACY", "station": "ADIS"}, "type": "Feature"}, {"geometry": {"coordinates": [-58.139855, -34.873708], "type": "Point"}, "properties": {"antenna": "LEIAR25.R4", "clock": "EXTERNAL CESIUM 1", "receiver": "LEICA GRX1200+GNSS", "station": "AGGO"}, "type": "Feature"}, {"geometry": {"coordinates": [130.599593, 31.824061], "type": "Point"}, "properties": {"antenna": "TRM59800.00", "clock": "EXTERNAL CESIUM", "receiver": "TRIMBLE NETR9", "station": "AIRA"}, "type": "Feature"}, {"geometry": {"coordinates": [8.762608, 41.927451], "type": "Point"}, "properties": {"antenna": "TRM115000.00", "clock": "INTERNAL", "receiver": "SEPT POLARX5", "station": "AJAC"}, "type": "Feature"}, {"geometry": {"coordinates": [-123.48747, 48.389782], "type": "Point"}, "properties": {"antenna": "TRM59800.00", "clock": "EXTERNAL H-MASER", "receiver": "SEPT POLARX5", "station": "ALBH"}, "type": "Feature"}, {"geometry": {"coordinates": [-78.071368, 45.9558], "type": "Point"}, "properties": {"antenna": "AOAD/M_T", "clock": "EXTERNAL H-MASER", "receiver": "SEPT POLARX5", "station": "ALGO"}, "type": "Feature"}, {"geometry": {"coordinates": [133.885513, -23.670124], "type": "Point"}, "properties": {"antenna": "LEIAR25.R3", "clock": "INTERNAL", "receiver": "SEPT POLARX5", "station": "ALIC"}, "type": "Feature"}, {"geometry": {"coordinates": [-62.34046, 82.494294], "type": "Point"}, "properties": {"antenna": "ASH701945D_M", "clock": "INTERNAL", "receiver": "ASHTECH UZ-12", "station": "ALRT"}, "type": "Feature"}, {"geometry": {"coordinates": [-104.524596, 38.803124], "type": "Point"}, "properties": {"antenna": "TPSCR.G5C", "clock": "EXTERNAL H-MASER", "receiver": "SEPT POLARX5TR", "station": "AMC4"}, "type": "Feature"}, {"geometry": {"coordinates": [32.758579, 39.887512], "type": "Point"}, "properties": {"antenna": "LEIAR10", "clock": "INTERNAL", "receiver": "LEICA GR30", "station": "ANKR"}, "type": "Feature"}, {"geometry": {"coordinates": [101.506602, 2.784648], "type": "Point"}, "properties": {"antenna": "JAVRINGANT_DM", "clock": "INTERNAL", "receiver": "TRIMBLE NETR9", "station": "ANMG"}, "type": "Feature"}, {"geometry": {"coordinates": [-71.532057, -37.338706], "type": "Point"}, "properties": {"antenna": "ASH700936D_M", "clock": "INTERNAL ", "receiver": "TRIMBLE NETR9", "station": "ANTC"}, "type": "Feature"}, {"geometry": {"coordinates": [-71.492904, -16.465423], "type": "Point"}, "properties": {"antenna": "TRM59800.00", "clock": "EXTERNAL RUBIDIUM", "receiver": "SEPT POLARX5", "station": "AREG"}, "type": "Feature"}, {"geometry": {"coordinates": [-71.492797, -16.465517], "type": "Point"}, "properties": {"antenna": "JAVRINGANT_DM", "clock": "EXTERNAL XL-DC 151-358-108-2", "receiver": "JAVAD TRE_G3TH DELTA", "station": "AREQ"}, "type": "Feature"}, {"geometry": {"coordinates": [166.663653, -77.829437], "type": "Point"}, "properties": {"antenna": "JAVRINGANT_DM", "clock": "INTERNAL", "receiver": "JAVAD TRE_3 DELTA", "station": "ARHT"}, "type": "Feature"}, {"geometry": {"coordinates": [58.560452, 56.429821], "type": "Point"}, "properties": {"antenna": "ASH700936D_M", "clock": "INTERNAL", "receiver": "JAVAD TRE_G3TH DELTA", "station": "ARTU"}, "type": "Feature"}, {"geometry": {"coordinates": [44.085586, 40.285714], "type": "Point"}, "properties": {"antenna": "ASH701945C_M", "clock": "INTERNAL", "receiver": "SEPT POLARX5", "station": "ARUC"}, "type": "Feature"}, {"geometry": {"coordinates": [-14.332664, -7.916281], "type": "Point"}, "properties": {"antenna": "TRM59800.00", "clock": "INTERNAL", "receiver": "TRIMBLE NETR9", "station": "ASCG"}, "type": "Feature"}, {"geometry": {"coordinates": [-170.722434, -14.326095], "type": "Point"}, "properties": {"antenna": "TRM55971.00", "clock": "INTERNAL", "receiver": "TRIMBLE NETR5", "station": "ASPA"}, "type": "Feature"}, {"geometry": {"coordinates": [51.953766, 47.130881], "type": "Point"}, "properties": {"antenna": "LEIAR25.R4", "clock": "INTERNAL", "receiver": "LEICA GR10", "station": "ATRU"}, "type": "Feature"}, {"geometry": {"coordinates": [174.834386, -36.602845], "type": "Point"}, "properties": {"antenna": "TRM115000.00", "clock": "INTERNAL", "receiver": "TRIMBLE ALLOY", "station": "AUCK"}, "type": "Feature"}, {"geometry": {"coordinates": [102.234981, 51.769706], "type": "Point"}, "properties": {"antenna": "JAVRINGANT_DM", "clock": "EXTERNAL H-MASER CH1-80", "receiver": "JAVAD TRE_3 DELTA", "station": "BADG"}, "type": "Feature"}, {"geometry": {"coordinates": [-68.263327, 49.186826], "type": "Point"}, "properties": {"antenna": "TPSCR.G3", "clock": "INTERNAL", "receiver": "TPS NET-G5", "station": "BAIE"}, "type": "Feature"}, {"geometry": {"coordinates": [-96.002344, 64.31782], "type": "Point"}, "properties": {"antenna": "TPSCR.G3", "clock": "INTERNAL", "receiver": "TPS NET-G3A", "station": "BAKE"}, "type": "Feature"}, {"geometry": {"coordinates": [106.84891, -6.491055], "type": "Point"}, "properties": {"antenna": "LEIAR20", "clock": "EXTERNAL", "receiver": "LEICA GR50", "station": "BAKO"}, "type": "Feature"}, {"geometry": {"coordinates": [-125.135104, 48.835329], "type": "Point"}, "properties": {"antenna": "SEPCHOKE_B3E6", "clock": "INTERNAL CLOCK STEERING", "receiver": "SEPT POLARX5", "station": "BAMF"}, "type": "Feature"}, {"geometry": {"coordinates": [-68.22169, 44.395048], "type": "Point"}, "properties": {"antenna": "LEIAR10", "clock": "INTERNAL", "receiver": "LEICA GR30", "station": "BARH"}, "type": "Feature"}, {"geometry": {"coordinates": [-48.46255, -1.408795], "type": "Point"}, "properties": {"antenna": "TRM115000.00", "clock": "INTERNAL ", "receiver": "TRIMBLE NETR9", "station": "BELE"}, "type": "Feature"}, {"geometry": {"coordinates": [50.608145, 26.209141], "type": "Point"}, "properties": {"antenna": "TPSCR.G5", "clock": "EXTERNAL CESIUM /RCVR1", "receiver": "ITT 3750300", "station": "BHR3"}, "type": "Feature"}, {"geometry": {"coordinates": [50.608145, 26.209141], "type": "Point"}, "properties": {"antenna": "TPSCR.G5", "clock": "EXTERNAL CESIUM /RCVR2", "receiver": "ITT 3750300", "station": "BHR4"}, "type": "Feature"}, {"geometry": {"coordinates": [74.533179, 42.854193], "type": "Point"}, "properties": {"antenna": "JAV_RINGANT_G3T", "clock": "INTERNAL", "receiver": "JAVAD TRE_G3TH DELTA", "station": "BIK0"}, "type": "Feature"}, {"geometry": {"coordinates": [-117.064599, 33.578243], "type": "Point"}, "properties": {"antenna": "TRM59800.99", "clock": "INTERNAL", "receiver": "SEPT POLARX5", "station": "BILL"}, "type": "Feature"}, {"geometry": {"coordinates": [2.450021, 6.384664], "type": "Point"}, "properties": {"antenna": "TRM59800.00", "clock": "INTERNAL", "receiver": "TRIMBLE NETR5", "station": "BJCO"}, "type": "Feature"}, {"geometry": {"coordinates": [115.892482, 39.608602], "type": "Point"}, "properties": {"antenna": "TRM59900.00", "clock": "EXTERNAL RUBIDIUM", "receiver": "TRIMBLE NETR9", "station": "BJFS"}, "type": "Feature"}, {"geometry": {"coordinates": [116.224128, 40.245325], "type": "Point"}, "properties": {"antenna": "NOV702GG", "clock": "EXTERNAL HYDROGEN MASER", "receiver": "SEPT POLARX3ETR", "station": "BJNM"}, "type": "Feature"}, {"geometry": {"coordinates": [-114.714851, 33.610415], "type": "Point"}, "properties": {"antenna": "ASH701945B_M", "clock": "INTERNAL", "receiver": "TRIMBLE NETRS", "station": "BLYT"}, "type": "Feature"}, {"geometry": {"coordinates": [115.209917, -8.7465], "type": "Point"}, "properties": {"antenna": "TRM59900.00", "clock": "INTERNAL ", "receiver": "TRIMBLE NETR9", "station": "BNOA"}, "type": "Feature"}, {"geometry": {"coordinates": [-60.701115, 2.845182], "type": "Point"}, "properties": {"antenna": "TRM115000.00", "clock": "INTERNAL ", "receiver": "TRIMBLE NETR9", "station": "BOAV"}, "type": "Feature"}, {"geometry": {"coordinates": [21.03521, 52.474989], "type": "Point"}, "properties": {"antenna": "ASH701945C_M", "clock": "EXTERNAL RUBIDIUM", "receiver": "JAVAD TRE_G3T DELTA", "station": "BOGI"}, "type": "Feature"}, {"geometry": {"coordinates": [-74.08094, 4.640073], "type": "Point"}, "properties": {"antenna": "JAVRINGANT_DM", "clock": "INTERNAL", "receiver": "JAVAD TRE_3 DELTA", "station": "BOGT"}, "type": "Feature"}, {"geometry": {"coordinates": [17.073458, 52.276956], "type": "Point"}, "properties": {"antenna": "TRM59800.00", "clock": "EXTERNAL H-MASER", "receiver": "TRIMBLE NETR9", "station": "BOR1"}, "type": "Feature"}, {"geometry": {"coordinates": [-47.877869, -15.947476], "type": "Point"}, "properties": {"antenna": "TRM57971.00", "clock": "INTERNAL", "receiver": "TRIMBLE NETR9", "station": "BRAZ"}, "type": "Feature"}, {"geometry": {"coordinates": [-119.682634, 48.131524], "type": "Point"}, "properties": {"antenna": "ASH701945C_M", "clock": "EXTERNAL H-MASER", "receiver": "SEPT POLARX5TR", "station": "BREW"}, "type": "Feature"}, {"geometry": {"coordinates": [-38.425537, -3.877447], "type": "Point"}, "properties": {"antenna": "LEIAT504", "clock": "INTERNAL", "receiver": "LEICA GRX1200PRO", "station": "BRFT"}, "type": "Feature"}, {"geometry": {"coordinates": [-64.696273, 32.370399], "type": "Point"}, "properties": {"antenna": "JAVRINGANT_DM", "clock": "INTERNAL", "receiver": "LEICA GRX1200GGPRO", "station": "BRMU"}, "type": "Feature"}, {"geometry": {"coordinates": [-4.4966, 48.380498], "type": "Point"}, "properties": {"antenna": "TRM57971.00", "clock": "INTERNAL", "receiver": "TRIMBLE ALLOY", "station": "BRST"}, "type": "Feature"}, {"geometry": {"coordinates": [114.952364, 4.971179], "type": "Point"}, "properties": {"antenna": "JAVRINGANT_DM", "clock": "INTERNAL", "receiver": "TRIMBLE NETR9", "station": "BRUN"}, "type": "Feature"}, {"geometry": {"coordinates": [4.358563, 50.798063], "type": "Point"}, "properties": {"antenna": "JAVRINGANT_DM", "clock": "EXTERNAL CH1-75A MASER", "receiver": "SEPT POLARX5TR", "station": "BRUX"}, "type": "Feature"}, {"geometry": {"coordinates": [35.02, 32.779], "type": "Point"}, "properties": {"antenna": "TRM59800.00", "clock": "INTERNAL", "receiver": "JAVAD TRE_3 DELTA", "station": "BSHM"}, "type": "Feature"}, {"geometry": {"coordinates": [125.190432, 1.438923], "type": "Point"}, "properties": {"antenna": "TRM59900.00", "clock": "INTERNAL ", "receiver": "TRIMBLE NETR9", "station": "BTNG"}, "type": "Feature"}, {"geometry": {"coordinates": [26.125738, 44.463944], "type": "Point"}, "properties": {"antenna": "LEIAR25.R4", "clock": "INTERNAL", "receiver": "LEICA GR50", "station": "BUCU"}, "type": "Feature"}, {"geometry": {"coordinates": [-75.807327, 45.58502], "type": "Point"}, "properties": {"antenna": "TRM59800.00", "clock": "INTERNAL", "receiver": "TRIMBLE NETR8", "station": "CAGS"}, "type": "Feature"}, {"geometry": {"coordinates": [110.519706, -66.283358], "type": "Point"}, "properties": {"antenna": "LEIAR25.R3", "clock": "INTERNAL", "receiver": "SEPT POLARXS", "station": "CAS1"}, "type": "Feature"}, {"geometry": {"coordinates": [142.195028, 27.067532], "type": "Point"}, "properties": {"antenna": "TRM59800.00", "clock": "INTERNAL", "receiver": "TRIMBLE NETR9", "station": "CCJ2"}, "type": "Feature"}, {"geometry": {"coordinates": [-4.367853, 40.453429], "type": "Point"}, "properties": {"antenna": "SEPCHOKE_B3E6", "clock": "EXTERNAL H-MASER", "receiver": "SEPT POLARX5TR", "station": "CEBR"}, "type": "Feature"}, {"geometry": {"coordinates": [133.809827, -31.866671], "type": "Point"}, "properties": {"antenna": "AOAD/M_T", "clock": "INTERNAL", "receiver": "SEPT POLARX5", "station": "CEDU"}, "type": "Feature"}, {"geometry": {"coordinates": [9.118312, 10.123095], "type": "Point"}, "properties": {"antenna": "ASH701945B_M", "clock": "INTERNAL", "receiver": "JAVAD TRE_G3TH DELTA", "station": "CGGN"}, "type": "Feature"}, {"geometry": {"coordinates": [125.443296, 43.790469], "type": "Point"}, "properties": {"antenna": "ASH701945E_M", "clock": "EXTERNAL H-MASER ", "receiver": "ASHTECH UZ-12", "station": "CHAN"}, "type": "Feature"}, {"geometry": {"coordinates": [-118.025996, 34.333422], "type": "Point"}, "properties": {"antenna": "TPSCR.G3", "clock": "INTERNAL", "receiver": "TPS NET-G3A", "station": "CHIL"}, "type": "Feature"}, {"geometry": {"coordinates": [139.531057, 35.674544], "type": "Point"}, "properties": {"antenna": "TRM57971.00", "clock": "INTERNAL", "receiver": "JAVAD TRE_G3TH DELTA", "station": "CHOF"}, "type": "Feature"}, {"geometry": {"coordinates": [-45.002376, -22.682273], "type": "Point"}, "properties": {"antenna": "TRM59800.00", "clock": "INTERNAL", "receiver": "TRIMBLE ALLOY", "station": "CHPG"}, "type": "Feature"}, {"geometry": {"coordinates": [-44.985159, -22.687145], "type": "Point"}, "properties": {"antenna": "TPSCR.G3", "clock": "INTERNAL", "receiver": "SEPT POLARX5", "station": "CHPI"}, "type": "Feature"}, {"geometry": {"coordinates": [-176.617115, -43.735474], "type": "Point"}, "properties": {"antenna": "TRM115000.00", "clock": "INTERNAL", "receiver": "TRIMBLE ALLOY", "station": "CHTI"}, "type": "Feature"}, {"geometry": {"coordinates": [74.751099, 42.998501], "type": "Point"}, "properties": {"antenna": "AOAD/M_T", "clock": "INTERNAL", "receiver": "TRIMBLE NETRS", "station": "CHUM"}, "type": "Feature"}, {"geometry": {"coordinates": [-94.088725, 58.759078], "type": "Point"}, "properties": {"antenna": "ASH701945E_M", "clock": "EXTERNAL RUBIDIUM", "receiver": "TPS NET-G3A", "station": "CHUR"}, "type": "Feature"}, {"geometry": {"coordinates": [-122.008426, 49.156609], "type": "Point"}, "properties": {"antenna": "SEPCHOKE_B3E6", "clock": "INTERNAL CLOCK STEERING", "receiver": "SEPT POLARX5", "station": "CHWK"}, "type": "Feature"}, {"geometry": {"coordinates": [106.849173, -6.490365], "type": "Point"}, "properties": {"antenna": "LEIAR25.R4", "clock": "INTERNAL", "receiver": "TRIMBLE NETR9", "station": "CIBG"}, "type": "Feature"}, {"geometry": {"coordinates": [-118.127285, 34.136709], "type": "Point"}, "properties": {"antenna": "TRM57971.00", "clock": "INTERNAL", "receiver": "TRIMBLE NETR9", "station": "CIT1"}, "type": "Feature"}, {"geometry": {"coordinates": [-159.80061, -21.201028], "type": "Point"}, "properties": {"antenna": "JAVRINGANT_DM", "clock": "INTERNAL", "receiver": "TRIMBLE NETR9", "station": "CKIS"}, "type": "Feature"}, {"geometry": {"coordinates": [120.220009, 22.998852], "type": "Point"}, "properties": {"antenna": "TPSCR.G3", "clock": "INTERNAL", "receiver": "TRIMBLE ALLOY", "station": "CKSV"}, "type": "Feature"}, {"geometry": {"coordinates": [-118.411425, 34.35318], "type": "Point"}, "properties": {"antenna": "TPSCR.G3", "clock": "INTERNAL", "receiver": "TPS NET-G3A", "station": "CMP9"}, "type": "Feature"}, {"geometry": {"coordinates": [98.93238, 18.760877], "type": "Point"}, "properties": {"antenna": "JAV_GRANT-G3T", "clock": "INTERNAL", "receiver": "TRIMBLE NETR9", "station": "CMUM"}, "type": "Feature"}, {"geometry": {"coordinates": [145.743092, 15.229697], "type": "Point"}, "properties": {"antenna": "TRM55971.00", "clock": "INTERNAL", "receiver": "TRIMBLE NETR9", "station": "CNMR"}, "type": "Feature"}, {"geometry": {"coordinates": [96.833964, -12.188352], "type": "Point"}, "properties": {"antenna": "AOAD/M_T", "clock": "INTERNAL", "receiver": "SEPT POLARX5", "station": "COCO"}, "type": "Feature"}, {"geometry": {"coordinates": [-64.470048, -31.528436], "type": "Point"}, "properties": {"antenna": "TPSCR.G3", "clock": "INTERNAL", "receiver": "JAVAD TRE_G3TH DELTA", "station": "CORD"}, "type": "Feature"}, {"geometry": {"coordinates": [-117.80889, 35.982343], "type": "Point"}, "properties": {"antenna": "TWIVC6150", "clock": "INTERNAL", "receiver": "SEPT POLARX5", "station": "COSO"}, "type": "Feature"}, {"geometry": {"coordinates": [161.9978, -77.8059], "type": "Point"}, "properties": {"antenna": "TRM59800.00", "clock": "INTERNAL", "receiver": "TRIMBLE NETR9", "station": "COTE"}, "type": "Feature"}, {"geometry": {"coordinates": [-71.892081, -45.514345], "type": "Point"}, "properties": {"antenna": "ASH700936D_M", "clock": "INTERNAL", "receiver": "TRIMBLE NETR9", "station": "COYQ"}, "type": "Feature"}, {"geometry": {"coordinates": [99.374378, 10.724651], "type": "Point"}, "properties": {"antenna": "JAVRINGANT_DM", "clock": "INTERNAL", "receiver": "TRIMBLE NETR9", "station": "CPNM"}, "type": "Feature"}, {"geometry": {"coordinates": [-22.934933, 16.732062], "type": "Point"}, "properties": {"antenna": "TRM59800.00", "clock": "INTERNAL", "receiver": "TRIMBLE NETR9", "station": "CPVG"}, "type": "Feature"}, {"geometry": {"coordinates": [33.990984, 44.41326], "type": "Point"}, "properties": {"antenna": "ASH701945C_M", "clock": "INTERNAL", "receiver": "ASHTECH UZ-12", "station": "CRAO"}, "type": "Feature"}, {"geometry": {"coordinates": [-117.099683, 34.039052], "type": "Point"}, "properties": {"antenna": "TRM57971.00", "clock": "INTERNAL", "receiver": "TRIMBLE NETR9", "station": "CRFP"}, "type": "Feature"}, {"geometry": {"coordinates": [-64.584319, 17.756899], "type": "Point"}, "properties": {"antenna": "JAVRINGANT_DM", "clock": "INTERNAL ", "receiver": "JAVAD TRE_3 DELTA", "station": "CRO1"}, "type": "Feature"}, {"geometry": {"coordinates": [100.533909, 13.735913], "type": "Point"}, "properties": {"antenna": "JAVRINGANT_DM", "clock": "INTERNAL", "receiver": "JAVAD TRE_3 DELTA", "station": "CUSV"}, "type": "Feature"}, {"geometry": {"coordinates": [115.894799, -32.003889], "type": "Point"}, "properties": {"antenna": "TRM59800.00", "clock": "INTERNAL", "receiver": "TRIMBLE NETR9", "station": "CUT0"}, "type": "Feature"}, {"geometry": {"coordinates": [100.533935, 13.735991], "type": "Point"}, "properties": {"antenna": "TRM57971.00", "clock": "INTERNAL", "receiver": "TRIMBLE NETR9", "station": "CUUT"}, "type": "Feature"}, {"geometry": {"coordinates": [51.855482, -46.431896], "type": "Point"}, "properties": {"antenna": "LEIAR20", "clock": "INTERNAL", "receiver": "TRIMBLE NETR9", "station": "CZTG"}, "type": "Feature"}, {"geometry": {"coordinates": [127.374483, 36.399428], "type": "Point"}, "properties": {"antenna": "TRM59800.00", "clock": "EXTERNAL CESIUM", "receiver": "TRIMBLE NETR9", "station": "DAE2"}, "type": "Feature"}, {"geometry": {"coordinates": [127.374476, 36.399429], "type": "Point"}, "properties": {"antenna": "TRM59800.00", "clock": "EXTERNAL CESIUM", "receiver": "TRIMBLE NETR9", "station": "DAEJ"}, "type": "Feature"}, {"geometry": {"coordinates": [-17.439466, 14.721235], "type": "Point"}, "properties": {"antenna": "TPSCR.G3", "clock": "INTERNAL", "receiver": "TPS NET-G3A", "station": "DAKR"}, "type": "Feature"}, {"geometry": {"coordinates": [131.132736, -12.843711], "type": "Point"}, "properties": {"antenna": "JAVRINGANT_DM", "clock": "INTERNAL", "receiver": "SEPT POLARX5", "station": "DARW"}, "type": "Feature"}, {"geometry": {"coordinates": [77.972615, -68.577323], "type": "Point"}, "properties": {"antenna": "LEIAR25.R3", "clock": "INTERNAL", "receiver": "SEPT POLARX5", "station": "DAV1"}, "type": "Feature"}, {"geometry": {"coordinates": [23.992639, -30.665207], "type": "Point"}, "properties": {"antenna": "ASH701941.B", "clock": "INTERNAL", "receiver": "TRIMBLE NETRS", "station": "DEAR"}, "type": "Feature"}, {"geometry": {"coordinates": [72.37024, -7.269684], "type": "Point"}, "properties": {"antenna": "ASH701945E_M", "clock": "INTERNAL", "receiver": "SEPT POLARX5", "station": "DGAR"}, "type": "Feature"}, {"geometry": {"coordinates": [-115.788028, 33.389806], "type": "Point"}, "properties": {"antenna": "TPSCR.G3", "clock": "INTERNAL", "receiver": "TPS NET-G3A", "station": "DHLG"}, "type": "Feature"}, {"geometry": {"coordinates": [42.847064, 11.526288], "type": "Point"}, "properties": {"antenna": "TRM59800.00", "clock": "INTERNAL", "receiver": "SEPT POLARX5", "station": "DJIG"}, "type": "Feature"}, {"geometry": {"coordinates": [4.387458, 51.986018], "type": "Point"}, "properties": {"antenna": "LEIAR25.R3", "clock": "EXTERNAL CESIUM", "receiver": "TRIMBLE NETR9", "station": "DLF1"}, "type": "Feature"}, {"geometry": {"coordinates": [108.481753, 11.945273], "type": "Point"}, "properties": {"antenna": "JAVRINGANT_DM", "clock": "INTERNAL", "receiver": "TRIMBLE NETR9", "station": "DLTV"}, "type": "Feature"}, {"geometry": {"coordinates": [35.39207, 31.5932], "type": "Point"}, "properties": {"antenna": "ASH700936D_M", "clock": "INTERNAL", "receiver": "JAVAD TRE_3 DELTA", "station": "DRAG"}, "type": "Feature"}, {"geometry": {"coordinates": [-119.624981, 49.32262], "type": "Point"}, "properties": {"antenna": "TRM59800.00", "clock": "EXTERNAL H-MASER", "receiver": "SEPT POLARX5", "station": "DRAO"}, "type": "Feature"}, {"geometry": {"coordinates": [-95.866179, 50.258809], "type": "Point"}, "properties": {"antenna": "AOAD/M_T", "clock": "EXTERNAL RUBIDIUM SYMMETRICOM", "receiver": "SEPT POLARX5", "station": "DUBO"}, "type": "Feature"}, {"geometry": {"coordinates": [140.002201, -66.665171], "type": "Point"}, "properties": {"antenna": "LEIAR25.R4", "clock": "INTERNAL", "receiver": "LEICA GR25", "station": "DUMG"}, "type": "Feature"}, {"geometry": {"coordinates": [170.597175, -45.883675], "type": "Point"}, "properties": {"antenna": "TRM115000.00", "clock": "INTERNAL", "receiver": "TRIMBLE ALLOY", "station": "DUND"}, "type": "Feature"}, {"geometry": {"coordinates": [23.932434, 38.078553], "type": "Point"}, "properties": {"antenna": "TRM59800.00", "clock": "INTERNAL", "receiver": "TRIMBLE NETR9", "station": "DYNG"}, "type": "Feature"}, {"geometry": {"coordinates": [0.492349, 40.820885], "type": "Point"}, "properties": {"antenna": "LEIAR25.R4", "clock": "INTERNAL", "receiver": "LEICA GR50", "station": "EBRE"}, "type": "Feature"}, {"geometry": {"coordinates": [-147.113015, 64.687892], "type": "Point"}, "properties": {"antenna": "TPSCR.G5", "clock": "EXTERNAL CESIUM /RCVR 1", "receiver": "ITT 3750300", "station": "EIL3"}, "type": "Feature"}, {"geometry": {"coordinates": [-147.113015, 64.687892], "type": "Point"}, "properties": {"antenna": "TPSCR.G5", "clock": "EXTERNAL CESIUM /RCVR 2", "receiver": "ITT 3750300", "station": "EIL4"}, "type": "Feature"}, {"geometry": {"coordinates": [-28.026011, 39.091203], "type": "Point"}, "properties": {"antenna": "JAVRINGANT_G5T", "clock": "INTERNAL", "receiver": "JAVAD TRE_3", "station": "ENAO"}, "type": "Feature"}, {"geometry": {"coordinates": [-66.992131, 44.90871], "type": "Point"}, "properties": {"antenna": "LEIAR20", "clock": "INTERNAL", "receiver": "LEICA GR50", "station": "EPRT"}, "type": "Feature"}, {"geometry": {"coordinates": [-64.79871, 47.073404], "type": "Point"}, "properties": {"antenna": "ASH701945E_M", "clock": "INTERNAL", "receiver": "TRIMBLE NETR9", "station": "ESCU"}, "type": "Feature"}, {"geometry": {"coordinates": [100.494096, 5.14557], "type": "Point"}, "properties": {"antenna": "JAVRINGANT_DM", "clock": "INTERNAL", "receiver": "TRIMBLE NETR9", "station": "EUSM"}, "type": "Feature"}, {"geometry": {"coordinates": [-149.614299, -17.555314], "type": "Point"}, "properties": {"antenna": "LEIAR25.R4", "clock": "INTERNAL ", "receiver": "SEPT POLARX5", "station": "FAA1"}, "type": "Feature"}, {"geometry": {"coordinates": [-147.49924, 64.977998], "type": "Point"}, "properties": {"antenna": "ASH701945G_M", "clock": "INTERNAL", "receiver": "JAVAD TRE_G3TH DELTA", "station": "FAIR"}, "type": "Feature"}, {"geometry": {"coordinates": [-171.999526, -13.832218], "type": "Point"}, "properties": {"antenna": "TRM41249.00", "clock": "INTERNAL", "receiver": "TRIMBLE NETRS", "station": "FALE"}, "type": "Feature"}, {"geometry": {"coordinates": [-57.874067, -51.693652], "type": "Point"}, "properties": {"antenna": "ASH701945E_M", "clock": "INTERNAL", "receiver": "SEPT POLARX5", "station": "FALK"}, "type": "Feature"}, {"geometry": {"coordinates": [8.664971, 50.09058], "type": "Point"}, "properties": {"antenna": "LEIAR25.R3", "clock": "INTERNAL", "receiver": "JAVAD TRE_3 DELTA", "station": "FFMJ"}, "type": "Feature"}, {"geometry": {"coordinates": [-101.978032, 54.725584], "type": "Point"}, "properties": {"antenna": "NOV750.R4", "clock": "INTERNAL", "receiver": "SEPT POLARX5", "station": "FLIN"}, "type": "Feature"}, {"geometry": {"coordinates": [-31.126389, 39.453832], "type": "Point"}, "properties": {"antenna": "LEIAT504GG", "clock": "INTERNAL", "receiver": "LEICA GRX1200GGPRO", "station": "FLRS"}, "type": "Feature"}, {"geometry": {"coordinates": [-66.65988, 45.933497], "type": "Point"}, "properties": {"antenna": "TPSCR.G3", "clock": "INTERNAL", "receiver": "TPS NET-G3A", "station": "FRDN"}, "type": "Feature"}, {"geometry": {"coordinates": [-178.120946, -14.307803], "type": "Point"}, "properties": {"antenna": "TRM59800.00", "clock": "INTERNAL", "receiver": "TRIMBLE NETR9", "station": "FTNA"}, "type": "Feature"}, {"geometry": {"coordinates": [-16.907617, 32.647946], "type": "Point"}, "properties": {"antenna": "TRM159900.00", "clock": "INTERNAL", "receiver": "TRIMBLE ALLOY", "station": "FUNC"}, "type": "Feature"}, {"geometry": {"coordinates": [-134.964824, -23.130355], "type": "Point"}, "properties": {"antenna": "TRM59800.00", "clock": "INTERNAL", "receiver": "TRIMBLE NETR9", "station": "GAMB"}, "type": "Feature"}, {"geometry": {"coordinates": [127.919736, 35.590082], "type": "Point"}, "properties": {"antenna": "LEIAR25.R4", "clock": "INTERNAL", "receiver": "SEPT POLARX5TR", "station": "GAMG"}, "type": "Feature"}, {"geometry": {"coordinates": [20.322937, 49.034714], "type": "Point"}, "properties": {"antenna": "TRM59800.00", "clock": "INTERNAL", "receiver": "TRIMBLE ALLOY", "station": "GANP"}, "type": "Feature"}, {"geometry": {"coordinates": [-147.499431, 64.978058], "type": "Point"}, "properties": {"antenna": "JAVRINGANT_DM", "clock": "INTERNAL", "receiver": "JAVAD TRE_3 DELTA", "station": "GCGO"}, "type": "Feature"}, {"geometry": {"coordinates": [8.921116, 44.4194], "type": "Point"}, "properties": {"antenna": "LEIAR20", "clock": "INTERNAL", "receiver": "LEICA GR30", "station": "GENO"}, "type": "Feature"}, {"geometry": {"coordinates": [-90.303669, -0.742999], "type": "Point"}, "properties": {"antenna": "ASH701945B_M", "clock": "INTERNAL", "receiver": "JAVAD TRE_G3TH DELTA", "station": "GLPS"}, "type": "Feature"}, {"geometry": {"coordinates": [30.496739, 50.364178], "type": "Point"}, "properties": {"antenna": "TRM115000.00", "clock": "INTERNAL", "receiver": "TRIMBLE NETR9", "station": "GLSV"}, "type": "Feature"}, {"geometry": {"coordinates": [131.015564, 30.556446], "type": "Point"}, "properties": {"antenna": "TRM59800.00", "clock": "EXTERNAL CESIUM", "receiver": "TRIMBLE NETR9", "station": "GMSD"}, "type": "Feature"}, {"geometry": {"coordinates": [-76.82683, 39.021728], "type": "Point"}, "properties": {"antenna": "AOAD/M_T", "clock": "EXTERNAL H-MASER", "receiver": "SEPT POLARX5TR", "station": "GODE"}, "type": "Feature"}, {"geometry": {"coordinates": [-76.827094, 39.021179], "type": "Point"}, "properties": {"antenna": "TPSCR.G3", "clock": "EXTERNAL H2 Maser", "receiver": "JAVAD TRE_3 DELTA", "station": "GODN"}, "type": "Feature"}, {"geometry": {"coordinates": [-76.827323, 39.020518], "type": "Point"}, "properties": {"antenna": "JAVRINGANT_DM", "clock": "EXTERNAL H2 Maser", "receiver": "JAVAD TRE_3 DELTA", "station": "GODS"}, "type": "Feature"}, {"geometry": {"coordinates": [-76.826829, 39.021727], "type": "Point"}, "properties": {"antenna": "AOAD/M_T", "clock": "EXTERNAL H-MASER", "receiver": "JPS EGGDT", "station": "GODZ"}, "type": "Feature"}, {"geometry": {"coordinates": [-116.88925, 35.425156], "type": "Point"}, "properties": {"antenna": "AOAD/M_T", "clock": "EXTERNAL H-MASER", "receiver": "ASHTECH UZ-12", "station": "GOL2"}, "type": "Feature"}, {"geometry": {"coordinates": [-116.88925, 35.425156], "type": "Point"}, "properties": {"antenna": "AOAD/M_T", "clock": "EXTERNAL H-Maser ", "receiver": "JAVAD TRE_G3TH DELTA", "station": "GOLD"}, "type": "Feature"}, {"geometry": {"coordinates": [14.785603, 49.913667], "type": "Point"}, "properties": {"antenna": "SEPCHOKE_B3E6", "clock": "EXTERNAL PASSIVE HYDROGEN MASER", "receiver": "SEPT POLARX5", "station": "GOP6"}, "type": "Feature"}, {"geometry": {"coordinates": [14.785602, 49.913666], "type": "Point"}, "properties": {"antenna": "SEPCHOKE_B3E6", "clock": "EXTERNAL PASSIVE HYDROGEN MASER", "receiver": "TRIMBLE NETR9", "station": "GOP7"}, "type": "Feature"}, {"geometry": {"coordinates": [14.785622, 49.913705], "type": "Point"}, "properties": {"antenna": "TPSCR.G3", "clock": "EXTERNAL PASSIVE HYDROGEN MASER", "receiver": "TRIMBLE ALLOY", "station": "GOPE"}, "type": "Feature"}, {"geometry": {"coordinates": [6.920761, 43.754486], "type": "Point"}, "properties": {"antenna": "TRM57971.00", "clock": "INTERNAL", "receiver": "LEICA GR25", "station": "GRAC"}, "type": "Feature"}, {"geometry": {"coordinates": [6.920575, 43.754739], "type": "Point"}, "properties": {"antenna": "ASH701945E_M", "clock": "INTERNAL", "receiver": "TRIMBLE NETR9", "station": "GRAS"}, "type": "Feature"}, {"geometry": {"coordinates": [15.493476, 47.067127], "type": "Point"}, "properties": {"antenna": "LEIAR25.R4", "clock": "INTERNAL", "receiver": "SEPT POLARX5", "station": "GRAZ"}, "type": "Feature"}, {"geometry": {"coordinates": [144.86836, 13.58933], "type": "Point"}, "properties": {"antenna": "JAVRINGANT_DM", "clock": "INTERNAL", "receiver": "JAVAD TRE_3 DELTA", "station": "GUAM"}, "type": "Feature"}, {"geometry": {"coordinates": [87.177294, 43.471094], "type": "Point"}, "properties": {"antenna": "ASH701945B_M", "clock": "EXTERNAL H-MASER", "receiver": "ASHTECH UZ-12", "station": "GUAO"}, "type": "Feature"}, {"geometry": {"coordinates": [-90.520183, 14.590404], "type": "Point"}, "properties": {"antenna": "LEIAR25.R3", "clock": "INTERNAL", "receiver": "LEICA GRX1200GGPRO", "station": "GUAT"}, "type": "Feature"}, {"geometry": {"coordinates": [144.802713, 13.433208], "type": "Point"}, "properties": {"antenna": "SEPCHOKE_B3E6", "clock": "INTERNAL", "receiver": "LEICA GR50", "station": "GUUG"}, "type": "Feature"}, {"geometry": {"coordinates": [-156.256243, 20.707417], "type": "Point"}, "properties": {"antenna": "JAVRINGANT_DM", "clock": "INTERNAL", "receiver": "SEPT POLARX5", "station": "HAL1"}, "type": "Feature"}, {"geometry": {"coordinates": [48.534306, 34.869083], "type": "Point"}, "properties": {"antenna": "TRM57971.00", "clock": "INTERNAL", "receiver": "TRIMBLE NETR9", "station": "HAMD"}, "type": "Feature"}, {"geometry": {"coordinates": [27.707246, -25.886962], "type": "Point"}, "properties": {"antenna": "TRM59800.00", "clock": "EXTERNAL CESIUM", "receiver": "SEPT POLARX5TR", "station": "HARB"}, "type": "Feature"}, {"geometry": {"coordinates": [0.3362, 50.8673], "type": "Point"}, "properties": {"antenna": "LEIAR25.R3", "clock": "EXTERNAL H-MASER", "receiver": "SEPT POLARX5TR", "station": "HERS"}, "type": "Feature"}, {"geometry": {"coordinates": [0.334351, 50.867478], "type": "Point"}, "properties": {"antenna": "LEIAT504GG", "clock": "INTERNAL", "receiver": "LEICA GRX1200GGPRO", "station": "HERT"}, "type": "Feature"}, {"geometry": {"coordinates": [113.927981, 22.372005], "type": "Point"}, "properties": {"antenna": "LEIAR25.R4", "clock": "INTERNAL ", "receiver": "LEICA GR50", "station": "HKSL"}, "type": "Feature"}, {"geometry": {"coordinates": [114.335377, 22.434282], "type": "Point"}, "properties": {"antenna": "LEIAR25.R4", "clock": "INTERNAL", "receiver": "LEICA GR50", "station": "HKWS"}, "type": "Feature"}, {"geometry": {"coordinates": [-63.611279, 44.683549], "type": "Point"}, "properties": {"antenna": "TPSCR.G3", "clock": "EXTERNAL RUBIDIUM", "receiver": "TPS NET-G3A", "station": "HLFX"}, "type": "Feature"}, {"geometry": {"coordinates": [-157.864542, 21.303283], "type": "Point"}, "properties": {"antenna": "ASH700936D_M", "clock": "INTERNAL", "receiver": "TRIMBLE NETR9", "station": "HNLC"}, "type": "Feature"}, {"geometry": {"coordinates": [-76.130374, 38.588817], "type": "Point"}, "properties": {"antenna": "LEIAX1202GG", "clock": "INTERNAL", "receiver": "LEICA GRX1200GGPRO", "station": "HNPT"}, "type": "Feature"}, {"geometry": {"coordinates": [19.223062, -34.424631], "type": "Point"}, "properties": {"antenna": "ASH701941.B", "clock": "INTERNAL", "receiver": "TRIMBLE ALLOY", "station": "HNUS"}, "type": "Feature"}, {"geometry": {"coordinates": [147.438732, -42.804718], "type": "Point"}, "properties": {"antenna": "AOAD/M_T", "clock": "EXTERNAL H-MASER", "receiver": "SEPT POLARX5", "station": "HOB2"}, "type": "Feature"}, {"geometry": {"coordinates": [-15.197924, 64.267291], "type": "Point"}, "properties": {"antenna": "LEIAR25.R4", "clock": "INTERNAL", "receiver": "LEICA GR50", "station": "HOFN"}, "type": "Feature"}, {"geometry": {"coordinates": [-128.134996, 50.640354], "type": "Point"}, "properties": {"antenna": "SEPCHOKE_B3E6", "clock": "INTERNAL RECEIVER CLOCK", "receiver": "SEPT POLARX5", "station": "HOLB"}, "type": "Feature"}, {"geometry": {"coordinates": [-117.760903, 70.736371], "type": "Point"}, "properties": {"antenna": "ASH701945D_M", "clock": "INTERNAL", "receiver": "ASHTECH UZ-12", "station": "HOLM"}, "type": "Feature"}, {"geometry": {"coordinates": [-118.168171, 33.92454], "type": "Point"}, "properties": {"antenna": "TPSCR.G3", "clock": "INTERNAL", "receiver": "TPS NET-G3A", "station": "HOLP"}, "type": "Feature"}, {"geometry": {"coordinates": [27.68518, -25.890402], "type": "Point"}, "properties": {"antenna": "LEIAR25.R3", "clock": "EXTERNAL H-MASER", "receiver": "JAVAD TRE_G3TH DELTA", "station": "HRAG"}, "type": "Feature"}, {"geometry": {"coordinates": [27.686981, -25.890104], "type": "Point"}, "properties": {"antenna": "ASH701945E_M", "clock": "EXTERNAL H-MASER", "receiver": "JAVAD TRE_G3TH DELTA", "station": "HRAO"}, "type": "Feature"}, {"geometry": {"coordinates": [7.596171, 47.83395], "type": "Point"}, "properties": {"antenna": "LEIAR25.R4", "clock": "INTERNAL", "receiver": "JAVAD TRE_3 DELTA", "station": "HUEG"}, "type": "Feature"}, {"geometry": {"coordinates": [78.550867, 17.417256], "type": "Point"}, "properties": {"antenna": "LEIAT504GG", "clock": "INTERNAL", "receiver": "LEICA GRX1200GGPRO", "station": "HYDE"}, "type": "Feature"}, {"geometry": {"coordinates": [7.639405, 45.015133], "type": "Point"}, "properties": {"antenna": "SEPCHOKE_MC", "clock": "EXTERNAL H-MASER", "receiver": "SEPT POLARX4TR", "station": "IENG"}, "type": "Feature"}, {"geometry": {"coordinates": [77.570376, 13.021166], "type": "Point"}, "properties": {"antenna": "ASH701945E_M", "clock": "INTERNAL", "receiver": "SEPT POLARX5", "station": "IISC"}, "type": "Feature"}, {"geometry": {"coordinates": [-102.284203, 21.856154], "type": "Point"}, "properties": {"antenna": "LEIAR10", "clock": "INTERNAL", "receiver": "LEICA GR10", "station": "INEG"}, "type": "Feature"}, {"geometry": {"coordinates": [-133.526959, 68.306186], "type": "Point"}, "properties": {"antenna": "ASH701945C_M", "clock": "INTERNAL", "receiver": "TRIMBLE NETR9", "station": "INVK"}, "type": "Feature"}, {"geometry": {"coordinates": [-68.510497, 63.755964], "type": "Point"}, "properties": {"antenna": "TPSCR.G3", "clock": "INTERNAL", "receiver": "TPS NET-G3A", "station": "IQAL"}, "type": "Feature"}, {"geometry": {"coordinates": [-70.131718, -20.273544], "type": "Point"}, "properties": {"antenna": "ASH700936D_M", "clock": "INTERNAL ", "receiver": "TRIMBLE NETR9", "station": "IQQE"}, "type": "Feature"}, {"geometry": {"coordinates": [104.316179, 52.219021], "type": "Point"}, "properties": {"antenna": "JPSREGANT_SD_E1", "clock": "EXTERNAL H-MASER", "receiver": "JPS LEGACY", "station": "IRKJ"}, "type": "Feature"}, {"geometry": {"coordinates": [104.31624, 52.219024], "type": "Point"}, "properties": {"antenna": "AOAD/M_T", "clock": "EXTERNAL H-MASER", "receiver": "JAVAD TRE_G3TH DELTA", "station": "IRKM"}, "type": "Feature"}, {"geometry": {"coordinates": [104.316237, 52.219025], "type": "Point"}, "properties": {"antenna": "AOAD/M_T", "clock": "EXTERNAL H-MASER", "receiver": "ROGUE SNR-8000", "station": "IRKT"}, "type": "Feature"}, {"geometry": {"coordinates": [44.438402, 33.341414], "type": "Point"}, "properties": {"antenna": "TRM57971.00", "clock": "INTERNAL", "receiver": "TRIMBLE NETR5", "station": "ISBA"}, "type": "Feature"}, {"geometry": {"coordinates": [140.218955, 36.208832], "type": "Point"}, "properties": {"antenna": "TRM59800.00", "clock": "EXTERNAL H-MASER", "receiver": "TRIMBLE NETR9", "station": "ISHI"}, "type": "Feature"}, {"geometry": {"coordinates": [-109.34441, -27.124983], "type": "Point"}, "properties": {"antenna": "ASH701945E_M", "clock": "INTERNAL", "receiver": "ASHTECH UZ-12", "station": "ISPA"}, "type": "Feature"}, {"geometry": {"coordinates": [29.019338, 41.104447], "type": "Point"}, "properties": {"antenna": "LEIAR25.R4", "clock": "INTERNAL", "receiver": "LEICA GR25", "station": "ISTA"}, "type": "Feature"}, {"geometry": {"coordinates": [27.081822, 38.394808], "type": "Point"}, "properties": {"antenna": "TRM55971.00", "clock": "INTERNAL", "receiver": "TRIMBLE NETR5", "station": "IZMI"}, "type": "Feature"}, {"geometry": {"coordinates": [18.468552, -33.951433], "type": "Point"}, "properties": {"antenna": "TRM59800.00", "clock": "INTERNAL", "receiver": "TRIMBLE NETR9", "station": "JCTW"}, "type": "Feature"}, {"geometry": {"coordinates": [114.491019, 30.515565], "type": "Point"}, "properties": {"antenna": "TRM59800.00", "clock": "INTERNAL", "receiver": "TRIMBLE ALLOY", "station": "JFNG"}, "type": "Feature"}, {"geometry": {"coordinates": [105.843947, 21.004585], "type": "Point"}, "properties": {"antenna": "JAVRINGANT_DM", "clock": "INTERNAL", "receiver": "TRIMBLE NETR9", "station": "JNAV"}, "type": "Feature"}, {"geometry": {"coordinates": [110.372463, -7.763814], "type": "Point"}, "properties": {"antenna": "JAV_RINGANT_G3T", "clock": "INTERNAL", "receiver": "JAVAD TRE_G3TH DELTA", "station": "JOG2"}, "type": "Feature"}, {"geometry": {"coordinates": [21.032341, 52.097832], "type": "Point"}, "properties": {"antenna": "TRM59800.00", "clock": "INTERNAL", "receiver": "TRIMBLE NETR9", "station": "JOZ2"}, "type": "Feature"}, {"geometry": {"coordinates": [21.031533, 52.097272], "type": "Point"}, "properties": {"antenna": "SEPCHOKE_B3E6", "clock": "INTERNAL", "receiver": "SEPT POLARX5", "station": "JOZE"}, "type": "Feature"}, {"geometry": {"coordinates": [-118.173229, 34.204821], "type": "Point"}, "properties": {"antenna": "AOAD/M_T", "clock": "INTERNAL", "receiver": "SEPT POLARX5", "station": "JPLM"}, "type": "Feature"}, {"geometry": {"coordinates": [28.282636, -25.732026], "type": "Point"}, "properties": {"antenna": "TRM59800.00", "clock": "INTERNAL", "receiver": "TRIMBLE NETR9", "station": "JPRE"}, "type": "Feature"}, {"geometry": {"coordinates": [117.097187, -20.981436], "type": "Point"}, "properties": {"antenna": "TRM59800.00", "clock": "INTERNAL", "receiver": "TRIMBLE NETR9", "station": "KARR"}, "type": "Feature"}, {"geometry": {"coordinates": [132.153274, -14.376001], "type": "Point"}, "properties": {"antenna": "LEIAR25.R3", "clock": "INTERNAL", "receiver": "SEPT POLARX5", "station": "KAT1"}, "type": "Feature"}, {"geometry": {"coordinates": [70.255525, -49.351466], "type": "Point"}, "properties": {"antenna": "ASH701945E_M", "clock": "INTERNAL", "receiver": "TRIMBLE NETR9", "station": "KERG"}, "type": "Feature"}, {"geometry": {"coordinates": [139.488121, 35.710342], "type": "Point"}, "properties": {"antenna": "ASH701945C_M", "clock": "EXTERNAL H-MASER", "receiver": "TRIMBLE NETRS", "station": "KGNI"}, "type": "Feature"}, {"geometry": {"coordinates": [36.239007, 50.005102], "type": "Point"}, "properties": {"antenna": "NOV702GG", "clock": "INTERNAL", "receiver": "NOV OEMV3", "station": "KHAR"}, "type": "Feature"}, {"geometry": {"coordinates": [21.060234, 67.877573], "type": "Point"}, "properties": {"antenna": "JNSCR_C146-22-1", "clock": "INTERNAL", "receiver": "SEPT POLARX5", "station": "KIR0"}, "type": "Feature"}, {"geometry": {"coordinates": [21.060178, 67.877542], "type": "Point"}, "properties": {"antenna": "LEIAR25.R3", "clock": "INTERNAL", "receiver": "TRIMBLE ALLOY", "station": "KIR8"}, "type": "Feature"}, {"geometry": {"coordinates": [172.922897, 1.354581], "type": "Point"}, "properties": {"antenna": "TRM59800.00", "clock": "INTERNAL", "receiver": "TRIMBLE NETR9", "station": "KIRI"}, "type": "Feature"}, {"geometry": {"coordinates": [20.968443, 67.85735], "type": "Point"}, "properties": {"antenna": "SEPCHOKE_B3E6", "clock": "EXTERNAL CESIUM", "receiver": "SEPT POLARX5", "station": "KIRU"}, "type": "Feature"}, {"geometry": {"coordinates": [66.885449, 39.134767], "type": "Point"}, "properties": {"antenna": "SEPCHOKE_B3E6", "clock": "INTERNAL", "receiver": "SEPT ASTERX4", "station": "KIT3"}, "type": "Feature"}, {"geometry": {"coordinates": [66.886738, 39.133386], "type": "Point"}, "properties": {"antenna": "TRM59800.00", "clock": "INTERNAL", "receiver": "SEPT POLARX5", "station": "KITG"}, "type": "Feature"}, {"geometry": {"coordinates": [118.388577, 24.463822], "type": "Point"}, "properties": {"antenna": "TPSCR3_GGD", "clock": "INTERNAL", "receiver": "TRIMBLE ALLOY", "station": "KMNM"}, "type": "Feature"}, {"geometry": {"coordinates": [-159.66493, 22.126264], "type": "Point"}, "properties": {"antenna": "ASH701945G_M", "clock": "EXTERNAL H-MASER", "receiver": "SEPT POLARX5TR", "station": "KOKB"}, "type": "Feature"}, {"geometry": {"coordinates": [-159.66493, 22.126264], "type": "Point"}, "properties": {"antenna": "ASH701945G_M", "clock": "EXTERNAL H-MASER", "receiver": "JAVAD TRE_G3TH DELTA", "station": "KOKV"}, "type": "Feature"}, {"geometry": {"coordinates": [5.818225, 52.173356], "type": "Point"}, "properties": {"antenna": "LEIAR25.R3", "clock": "INTERNAL", "receiver": "SEPT POLARX5E", "station": "KOS1"}, "type": "Feature"}, {"geometry": {"coordinates": [63.608113, 53.224555], "type": "Point"}, "properties": {"antenna": "LEIAR25.R4", "clock": "INTERNAL", "receiver": "LEICA GR10", "station": "KOST"}, "type": "Feature"}, {"geometry": {"coordinates": [164.287335, -20.558697], "type": "Point"}, "properties": {"antenna": "TRM57971.00", "clock": "INTERNAL", "receiver": "TRIMBLE NETR9", "station": "KOUC"}, "type": "Feature"}, {"geometry": {"coordinates": [-52.639747, 5.098468], "type": "Point"}, "properties": {"antenna": "LEIAR25.R3", "clock": "EXTERNAL CESIUM", "receiver": "SEPT POLARX5TR", "station": "KOUG"}, "type": "Feature"}, {"geometry": {"coordinates": [-52.805959, 5.25218], "type": "Point"}, "properties": {"antenna": "SEPCHOKE_B3E6", "clock": "EXTERNAL H-MASER", "receiver": "SEPT POLARX5", "station": "KOUR"}, "type": "Feature"}, {"geometry": {"coordinates": [70.255506, -49.351543], "type": "Point"}, "properties": {"antenna": "LEIAR25.R4", "clock": "INTERNAL", "receiver": "TRIMBLE ALLOY", "station": "KRGG"}, "type": "Feature"}, {"geometry": {"coordinates": [43.093444, 40.588453], "type": "Point"}, "properties": {"antenna": "TRM55971.00", "clock": "INTERNAL", "receiver": "TRIMBLE NETR5", "station": "KRS1"}, "type": "Feature"}, {"geometry": {"coordinates": [140.657675, 35.955373], "type": "Point"}, "properties": {"antenna": "ASH700936E", "clock": "EXTERNAL H-MASER", "receiver": "TRIMBLE NETRS", "station": "KSMV"}, "type": "Feature"}, {"geometry": {"coordinates": [-77.735272, 55.290007], "type": "Point"}, "properties": {"antenna": "AOAD/M_T_RFI_T", "clock": "INTERNAL", "receiver": "SEPT POLARX5", "station": "KUJ2"}, "type": "Feature"}, {"geometry": {"coordinates": [49.119246, 55.790783], "type": "Point"}, "properties": {"antenna": "TRM59800.00", "clock": "INTERNAL ", "receiver": "TRIMBLE ALLOY", "station": "KZN2"}, "type": "Feature"}, {"geometry": {"coordinates": [146.993187, -6.67371], "type": "Point"}, "properties": {"antenna": "ASH700936A_M", "clock": "INTERNAL ", "receiver": "ASHTECH UZ-12", "station": "LAE1"}, "type": "Feature"}, {"geometry": {"coordinates": [20.669933, 53.892399], "type": "Point"}, "properties": {"antenna": "LEIAT504GG", "clock": "INTERNAL", "receiver": "LEICA GRX1200+GNSS", "station": "LAMA"}, "type": "Feature"}, {"geometry": {"coordinates": [177.44658, -17.608815], "type": "Point"}, "properties": {"antenna": "JAVRINGANT_DM", "clock": "INTERNAL", "receiver": "SEPT POLARX5", "station": "LAUT"}, "type": "Feature"}, {"geometry": {"coordinates": [-118.203344, 33.78777], "type": "Point"}, "properties": {"antenna": "TWIVC6150", "clock": "INTERNAL", "receiver": "SEPT POLARX5", "station": "LBCH"}, "type": "Feature"}, {"geometry": {"coordinates": [80.955636, 26.912179], "type": "Point"}, "properties": {"antenna": "LEIAR25.R3", "clock": "EXTERNAL Passive Hydrogen Maser", "receiver": "TRIMBLE ALLOY", "station": "LCK3"}, "type": "Feature"}, {"geometry": {"coordinates": [80.955617, 26.912143], "type": "Point"}, "properties": {"antenna": "LEIAR25.R3", "clock": "EXTERNAL Passive Hydrogen Maser", "receiver": "TRIMBLE ALLOY", "station": "LCK4"}, "type": "Feature"}, {"geometry": {"coordinates": [12.374102, 51.353982], "type": "Point"}, "properties": {"antenna": "LEIAR25.R4", "clock": "INTERNAL", "receiver": "JAVAD TRE_3 DELTA", "station": "LEIJ"}, "type": "Feature"}, {"geometry": {"coordinates": [91.104041, 29.657196], "type": "Point"}, "properties": {"antenna": "LEIAR25.R4", "clock": "INTERNAL", "receiver": "LEICA GR25", "station": "LHAZ"}, "type": "Feature"}, {"geometry": {"coordinates": [-0.174838, 51.499789], "type": "Point"}, "properties": {"antenna": "CHCC220GR2", "clock": "INTERNAL", "receiver": "CHC P5E", "station": "LICC"}, "type": "Feature"}, {"geometry": {"coordinates": [-16.320718, 28.481666], "type": "Point"}, "properties": {"antenna": "TRM57971.00", "clock": "INTERNAL", "receiver": "JAVAD TRE_G2T DELTA", "station": "LLAG"}, "type": "Feature"}, {"geometry": {"coordinates": [-60.996171, 14.594816], "type": "Point"}, "properties": {"antenna": "TRM57971.00", "clock": "INTERNAL", "receiver": "TRIMBLE ALLOY", "station": "LMMF"}, "type": "Feature"}, {"geometry": {"coordinates": [-17.89384, 28.763959], "type": "Point"}, "properties": {"antenna": "LEIAT504GG", "clock": "INTERNAL", "receiver": "LEICA GRX1200GGPRO", "station": "LPAL"}, "type": "Feature"}, {"geometry": {"coordinates": [-57.9323, -34.906745], "type": "Point"}, "properties": {"antenna": "JAVRINGANT_G5T", "clock": "INTERNAL", "receiver": "JAVAD TRE_3", "station": "LPGS"}, "type": "Feature"}, {"geometry": {"coordinates": [-1.21932, 46.15894], "type": "Point"}, "properties": {"antenna": "ASH701945B_M", "clock": "INTERNAL", "receiver": "LEICA GR25", "station": "LROC"}, "type": "Feature"}, {"geometry": {"coordinates": [12.493258, 41.893113], "type": "Point"}, "properties": {"antenna": "LEIAR25.R4", "clock": "EXTERNAL RUBIDIUM", "receiver": "LEICA GR25", "station": "M0SE"}, "type": "Feature"}, {"geometry": {"coordinates": [158.935834, -54.499533], "type": "Point"}, "properties": {"antenna": "JAVRINGANT_DM", "clock": "INTERNAL", "receiver": "SEPT POLARX5", "station": "MAC1"}, "type": "Feature"}, {"geometry": {"coordinates": [-4.249659, 40.429162], "type": "Point"}, "properties": {"antenna": "AOAD/M_T", "clock": "EXTERNAL H-MASER", "receiver": "ASHTECH Z-XII3T", "station": "MAD2"}, "type": "Feature"}, {"geometry": {"coordinates": [-4.249659, 40.429162], "type": "Point"}, "properties": {"antenna": "AOAD/M_T", "clock": "EXTERNAL", "receiver": "JAVAD TRE_G3TH DELTA", "station": "MADR"}, "type": "Feature"}, {"geometry": {"coordinates": [150.770019, 59.575755], "type": "Point"}, "properties": {"antenna": "ASH700936D_M", "clock": "INTERNAL", "receiver": "ASHTECH Z-XII3", "station": "MAG0"}, "type": "Feature"}, {"geometry": {"coordinates": [171.364524, 7.119147], "type": "Point"}, "properties": {"antenna": "JAVRINGANT_DM", "clock": "INTERNAL", "receiver": "SEPT POLARX4TR", "station": "MAJU"}, "type": "Feature"}, {"geometry": {"coordinates": [40.194143, -2.996055], "type": "Point"}, "properties": {"antenna": "LEIAR25.R4", "clock": "INTERNAL ", "receiver": "SEPT POLARX5", "station": "MAL2"}, "type": "Feature"}, {"geometry": {"coordinates": [-86.248994, 12.148938], "type": "Point"}, "properties": {"antenna": "TRM59800.99", "clock": "INTERNAL", "receiver": "TRIMBLE NETR9", "station": "MANA"}, "type": "Feature"}, {"geometry": {"coordinates": [17.258522, 60.595141], "type": "Point"}, "properties": {"antenna": "AOAD/M_T", "clock": "INTERNAL", "receiver": "SEPT POLARX5", "station": "MAR6"}, "type": "Feature"}, {"geometry": {"coordinates": [17.25844, 60.595052], "type": "Point"}, "properties": {"antenna": "LEIAR25.R3", "clock": "INTERNAL", "receiver": "TRIMBLE ALLOY", "station": "MAR7"}, "type": "Feature"}, {"geometry": {"coordinates": [5.353785, 43.278769], "type": "Point"}, "properties": {"antenna": "TRM57971.00", "clock": "INTERNAL", "receiver": "LEICA GR25", "station": "MARS"}, "type": "Feature"}, {"geometry": {"coordinates": [-15.633277, 27.76374], "type": "Point"}, "properties": {"antenna": "LEIAR25.R4", "clock": "EXTERNAL CESIUM", "receiver": "SEPT POLARX5", "station": "MAS1"}, "type": "Feature"}, {"geometry": {"coordinates": [16.704545, 40.649062], "type": "Point"}, "properties": {"antenna": "LEIAR20", "clock": "INTERNAL", "receiver": "LEICA GR30", "station": "MAT1"}, "type": "Feature"}, {"geometry": {"coordinates": [16.704457, 40.64913], "type": "Point"}, "properties": {"antenna": "LEIAR20", "clock": "EXTERNAL H_MASER", "receiver": "LEICA GR30", "station": "MATE"}, "type": "Feature"}, {"geometry": {"coordinates": [16.704653, 40.649028], "type": "Point"}, "properties": {"antenna": "LEIAR25", "clock": "INTERNAL", "receiver": "LEICA GR10", "station": "MATG"}, "type": "Feature"}, {"geometry": {"coordinates": [-156.257025, 20.706651], "type": "Point"}, "properties": {"antenna": "ASH700936D_M", "clock": "INTERNAL", "receiver": "TRIMBLE NETRS", "station": "MAUI"}, "type": "Feature"}, {"geometry": {"coordinates": [62.870717, -67.604767], "type": "Point"}, "properties": {"antenna": "AOAD/M_T", "clock": "INTERNAL", "receiver": "SEPT POLARX5", "station": "MAW1"}, "type": "Feature"}, {"geometry": {"coordinates": [45.258152, -12.782053], "type": "Point"}, "properties": {"antenna": "TRM59800.00", "clock": "INTERNAL", "receiver": "TRIMBLE ALLOY", "station": "MAYG"}, "type": "Feature"}, {"geometry": {"coordinates": [30.737876, -0.601469], "type": "Point"}, "properties": {"antenna": "ASH701945B_M", "clock": "INTERNAL", "receiver": "JAVAD TRE_3 DELTA", "station": "MBAR"}, "type": "Feature"}, {"geometry": {"coordinates": [148.14496, -26.358905], "type": "Point"}, "properties": {"antenna": "TRM59800.00", "clock": "INTERNAL", "receiver": "TRIMBLE ALLOY", "station": "MCHL"}, "type": "Feature"}, {"geometry": {"coordinates": [153.978661, 24.290094], "type": "Point"}, "properties": {"antenna": "TRM59800.80", "clock": "EXTERNAL RUBIDIUM", "receiver": "TRIMBLE NETR9", "station": "MCIL"}, "type": "Feature"}, {"geometry": {"coordinates": [166.669329, -77.838349], "type": "Point"}, "properties": {"antenna": "AOAD/M_T", "clock": "INTERNAL", "receiver": "JAVAD TRE_G3TH DELTA", "station": "MCM4"}, "type": "Feature"}, {"geometry": {"coordinates": [-104.014993, 30.680511], "type": "Point"}, "properties": {"antenna": "JAVRINGANT_DM", "clock": "INTERNAL", "receiver": "SEPT POLARX5", "station": "MDO1"}, "type": "Feature"}, {"geometry": {"coordinates": [37.214503, 56.021492], "type": "Point"}, "properties": {"antenna": "JPSREGANT_DD_E1", "clock": "EXTERNAL H-MASER", "receiver": "TPS NETG3", "station": "MDVJ"}, "type": "Feature"}, {"geometry": {"coordinates": [11.646813, 44.519956], "type": "Point"}, "properties": {"antenna": "LEIAR20", "clock": "EXTERNAL H-MASER", "receiver": "LEICA GR10", "station": "MEDI"}, "type": "Feature"}, {"geometry": {"coordinates": [-2.951641, 35.28122], "type": "Point"}, "properties": {"antenna": "LEIAR25.R4", "clock": "INTERNAL", "receiver": "LEICA GR10", "station": "MELI"}, "type": "Feature"}, {"geometry": {"coordinates": [34.255853, 36.566389], "type": "Point"}, "properties": {"antenna": "LEIAR10", "clock": "INTERNAL", "receiver": "LEICA GR50", "station": "MERS"}, "type": "Feature"}, {"geometry": {"coordinates": [24.394501, 60.217456], "type": "Point"}, "properties": {"antenna": "JAVRINGANT_DM", "clock": "INTERNAL", "receiver": "JAVAD TRE_3 DELTA", "station": "MET3"}, "type": "Feature"}, {"geometry": {"coordinates": [24.384175, 60.241967], "type": "Point"}, "properties": {"antenna": "TRM59800.00", "clock": "INTERNAL", "receiver": "SEPT POLARX5", "station": "METG"}, "type": "Feature"}, {"geometry": {"coordinates": [24.395316, 60.217471], "type": "Point"}, "properties": {"antenna": "ASH700936C_M", "clock": "INTERNAL", "receiver": "JAVAD TRE_3 DELTA", "station": "METS"}, "type": "Feature"}, {"geometry": {"coordinates": [25.539972, -25.805016], "type": "Point"}, "properties": {"antenna": "ASH701941.B", "clock": "INTERNAL", "receiver": "TRIMBLE NETRS", "station": "MFKG"}, "type": "Feature"}, {"geometry": {"coordinates": [-69.397927, -35.777351], "type": "Point"}, "properties": {"antenna": "LEIAR25.R4", "clock": "EXTERNAL H-MASER", "receiver": "SEPT POLARX5TR", "station": "MGUE"}, "type": "Feature"}, {"geometry": {"coordinates": [31.972828, 46.972789], "type": "Point"}, "properties": {"antenna": "LEIAR10", "clock": "INTERNAL", "receiver": "LEICA GR10", "station": "MIKL"}, "type": "Feature"}, {"geometry": {"coordinates": [141.132826, 39.13517], "type": "Point"}, "properties": {"antenna": "SEPCHOKE_B3E6", "clock": "INTERNAL", "receiver": "SEPT ASTERX4", "station": "MIZU"}, "type": "Feature"}, {"geometry": {"coordinates": [-155.456345, 19.801357], "type": "Point"}, "properties": {"antenna": "JAVRINGANT_DM", "clock": "INTERNAL", "receiver": "SEPT POLARX5", "station": "MKEA"}, "type": "Feature"}, {"geometry": {"coordinates": [36.569713, 55.114882], "type": "Point"}, "properties": {"antenna": "JPSREGANT_SD_E1", "clock": "INTERNAL", "receiver": "JPS LEGACY", "station": "MOBJ"}, "type": "Feature"}, {"geometry": {"coordinates": [36.569713, 55.114882], "type": "Point"}, "properties": {"antenna": "JPSREGANT_SD_E1", "clock": "INTERNAL", "receiver": "JPS EGGDT", "station": "MOBK"}, "type": "Feature"}, {"geometry": {"coordinates": [36.569523, 55.114878], "type": "Point"}, "properties": {"antenna": "ASH701945C_M", "clock": "INTERNAL", "receiver": "ASHTECH UZ-12", "station": "MOBN"}, "type": "Feature"}, {"geometry": {"coordinates": [144.97534, -37.829405], "type": "Point"}, "properties": {"antenna": "ASH701945C_M", "clock": "INTERNAL", "receiver": "SEPT POLARX4TR", "station": "MOBS"}, "type": "Feature"}, {"geometry": {"coordinates": [35.29001, 0.28832], "type": "Point"}, "properties": {"antenna": "ASH701945E_M", "clock": "INTERNAL", "receiver": "JAVAD TRE_3 DELTA", "station": "MOIU"}, "type": "Feature"}, {"geometry": {"coordinates": [-116.422351, 32.891941], "type": "Point"}, "properties": {"antenna": "ASH701945B_M", "clock": "INTERNAL", "receiver": "TPS NET-G3A", "station": "MONP"}, "type": "Feature"}, {"geometry": {"coordinates": [-1.685497, 55.21279], "type": "Point"}, "properties": {"antenna": "AOAD/M_T", "clock": "INTERNAL", "receiver": "TRIMBLE NETR8", "station": "MORP"}, "type": "Feature"}, {"geometry": {"coordinates": [172.654705, -43.702736], "type": "Point"}, "properties": {"antenna": "TRM115000.00", "clock": "INTERNAL ", "receiver": "TRIMBLE ALLOY", "station": "MQZG"}, "type": "Feature"}, {"geometry": {"coordinates": [-77.37065, 38.4991], "type": "Point"}, "properties": {"antenna": "SEPCHOKE_B3E6", "clock": "EXTERNAL H-MASER", "receiver": "SEPT POLARX5", "station": "MRC1"}, "type": "Feature"}, {"geometry": {"coordinates": [173.740752, -41.576193], "type": "Point"}, "properties": {"antenna": "TPSCR.G5", "clock": "EXTERNAL CESIUM /RCVR 1", "receiver": "ITT 3750300", "station": "MRL1"}, "type": "Feature"}, {"geometry": {"coordinates": [173.740752, -41.576193], "type": "Point"}, "properties": {"antenna": "TPSCR.G5", "clock": "EXTERNAL CESIUM /RCVR 2", "receiver": "ITT 3750300", "station": "MRL2"}, "type": "Feature"}, {"geometry": {"coordinates": [116.637492, -26.696638], "type": "Point"}, "properties": {"antenna": "TRM59800.00", "clock": "INTERNAL", "receiver": "TRIMBLE NETR9", "station": "MRO1"}, "type": "Feature"}, {"geometry": {"coordinates": [139.561385, 35.679515], "type": "Point"}, "properties": {"antenna": "ASH701073.1", "clock": "INTERNAL", "receiver": "TRIMBLE NETR9", "station": "MTKA"}, "type": "Feature"}, {"geometry": {"coordinates": [-56.176301, -34.91359], "type": "Point"}, "properties": {"antenna": "TPSCR.G5", "clock": "EXTERNAL CESIUM / RCVR1", "receiver": "ITT 3750300", "station": "MTV1"}, "type": "Feature"}, {"geometry": {"coordinates": [-56.176301, -34.91359], "type": "Point"}, "properties": {"antenna": "TPSCR.G5", "clock": "EXTERNAL CESIUM / RCVR2", "receiver": "ITT 3750300", "station": "MTV2"}, "type": "Feature"}, {"geometry": {"coordinates": [-61.688717, 56.536964], "type": "Point"}, "properties": {"antenna": "ASH701945D_M", "clock": "INTERNAL", "receiver": "ASHTECH UZ-12", "station": "NAIN"}, "type": "Feature"}, {"geometry": {"coordinates": [-124.086478, 49.294811], "type": "Point"}, "properties": {"antenna": "SEPCHOKE_B3E6", "clock": "INTERNAL CLOCK STEERING", "receiver": "SEPT POLARX5", "station": "NANO"}, "type": "Feature"}, {"geometry": {"coordinates": [166.925551, -0.551731], "type": "Point"}, "properties": {"antenna": "LEIAR25.R3", "clock": "INTERNAL", "receiver": "SEPT POLARX4TR", "station": "NAUR"}, "type": "Feature"}, {"geometry": {"coordinates": [120.222586, 22.996659], "type": "Point"}, "properties": {"antenna": "JAVRINGANT_DM", "clock": "INTERNAL", "receiver": "TRIMBLE NETR9", "station": "NCKU"}, "type": "Feature"}, {"geometry": {"coordinates": [33.396432, 35.14098], "type": "Point"}, "properties": {"antenna": "LEIAR25.R4", "clock": "INTERNAL", "receiver": "LEICA GR50", "station": "NICO"}, "type": "Feature"}, {"geometry": {"coordinates": [-105.262604, 39.995067], "type": "Point"}, "properties": {"antenna": "NOV702", "clock": "EXTERNAL H-MASER", "receiver": "NOV OEM4-G2", "station": "NIST"}, "type": "Feature"}, {"geometry": {"coordinates": [-169.927067, -19.076566], "type": "Point"}, "properties": {"antenna": "TRM59800.00", "clock": "INTERNAL", "receiver": "TRIMBLE NETR9", "station": "NIUM"}, "type": "Feature"}, {"geometry": {"coordinates": [9.672126, 0.353899], "type": "Point"}, "properties": {"antenna": "TRM59800.00", "clock": "INTERNAL", "receiver": "SEPT POLARX5", "station": "NKLG"}, "type": "Feature"}, {"geometry": {"coordinates": [-91.574893, 41.771591], "type": "Point"}, "properties": {"antenna": "JAVRINGANT_DM", "clock": "EXTERNAL H-MASER", "receiver": "SEPT POLARX5TR", "station": "NLIB"}, "type": "Feature"}, {"geometry": {"coordinates": [116.192715, -31.048739], "type": "Point"}, "properties": {"antenna": "SEPCHOKE_B3E6", "clock": "EXTERNAL SLAVED CRYSTAL", "receiver": "SEPT POLARX5TR", "station": "NNOR"}, "type": "Feature"}, {"geometry": {"coordinates": [14.989808, 36.876109], "type": "Point"}, "properties": {"antenna": "LEIAR20", "clock": "EXTERNAL H-MASER", "receiver": "LEICA GR30", "station": "NOT1"}, "type": "Feature"}, {"geometry": {"coordinates": [82.909486, 55.030501], "type": "Point"}, "properties": {"antenna": "JPSREGANT_SD_E1", "clock": "EXTERNAL H-MASER", "receiver": "JPS LEGACY", "station": "NOVM"}, "type": "Feature"}, {"geometry": {"coordinates": [-75.623826, 45.454162], "type": "Point"}, "properties": {"antenna": "AOAD/M_T", "clock": "EXTERNAL H-MASER", "receiver": "JAVAD TRE_G3TH DELTA", "station": "NRC1"}, "type": "Feature"}, {"geometry": {"coordinates": [88.359778, 69.361833], "type": "Point"}, "properties": {"antenna": "ASH701945B_M", "clock": "INTERNAL", "receiver": "ASHTECH UZ-12", "station": "NRIL"}, "type": "Feature"}, {"geometry": {"coordinates": [166.484883, -22.22833], "type": "Point"}, "properties": {"antenna": "TRM57971.00", "clock": "INTERNAL", "receiver": "TRIMBLE NETR9", "station": "NRMD"}, "type": "Feature"}, {"geometry": {"coordinates": [103.679942, 1.345806], "type": "Point"}, "properties": {"antenna": "LEIAR20", "clock": "INTERNAL", "receiver": "LEICA GR50", "station": "NTUS"}, "type": "Feature"}, {"geometry": {"coordinates": [83.235465, 54.840625], "type": "Point"}, "properties": {"antenna": "TRM57971.00", "clock": "INTERNAL", "receiver": "TRIMBLE R7 GNSS", "station": "NVSK"}, "type": "Feature"}, {"geometry": {"coordinates": [11.865295, 78.929553], "type": "Point"}, "properties": {"antenna": "ASH701073.1", "clock": "EXTERNAL H-MASER", "receiver": "TRIMBLE NETR8", "station": "NYA1"}, "type": "Feature"}, {"geometry": {"coordinates": [11.858638, 78.930333], "type": "Point"}, "properties": {"antenna": "JAVRINGANT_G5T", "clock": "INTERNAL", "receiver": "SEPT POLARX5", "station": "NYA2"}, "type": "Feature"}, {"geometry": {"coordinates": [11.865095, 78.929581], "type": "Point"}, "properties": {"antenna": "AOAD/M_B", "clock": "EXTERNAL H-MASER", "receiver": "TRIMBLE NETR9", "station": "NYAL"}, "type": "Feature"}, {"geometry": {"coordinates": [-0.905126, 51.117612], "type": "Point"}, "properties": {"antenna": "TPSCR.G5", "clock": "EXTERNAL CESIUM / RCVR 1", "receiver": "ITT 3750300", "station": "OAK1"}, "type": "Feature"}, {"geometry": {"coordinates": [-0.905126, 51.117612], "type": "Point"}, "properties": {"antenna": "TPSCR.G5", "clock": "EXTERNAL CESIUM / RCVR 2", "receiver": "ITT 3750300", "station": "OAK2"}, "type": "Feature"}, {"geometry": {"coordinates": [11.277857, 48.084805], "type": "Point"}, "properties": {"antenna": "JAV_RINGANT_G3T", "clock": "INTERNAL", "receiver": "JAVAD TRE_G3TH DELTA", "station": "OBE4"}, "type": "Feature"}, {"geometry": {"coordinates": [-57.901343, -63.321077], "type": "Point"}, "properties": {"antenna": "LEIAR25.R4", "clock": "EXTERNAL H-Maser", "receiver": "JAVAD TRE_G3TH DELTA", "station": "OHI2"}, "type": "Feature"}, {"geometry": {"coordinates": [-57.901386, -63.321094], "type": "Point"}, "properties": {"antenna": "LEIAR25.R4", "clock": "EXTERNAL H-Maser", "receiver": "LEICA GR50", "station": "OHI3"}, "type": "Feature"}, {"geometry": {"coordinates": [11.924537, 57.395331], "type": "Point"}, "properties": {"antenna": "LEIAR25.R3", "clock": "EXTERNAL H-MASER", "receiver": "TRIMBLE NETR9", "station": "ONS1"}, "type": "Feature"}, {"geometry": {"coordinates": [11.925513, 57.395296], "type": "Point"}, "properties": {"antenna": "AOAD/M_B", "clock": "EXTERNAL H-MASER", "receiver": "SEPT POLARX5TR", "station": "ONSA"}, "type": "Feature"}, {"geometry": {"coordinates": [2.334975, 48.835906], "type": "Point"}, "properties": {"antenna": "LEIAR25.R4", "clock": "EXTERNAL UTC(OP)", "receiver": "SEPT POLARX4TR", "station": "OP71"}, "type": "Feature"}, {"geometry": {"coordinates": [2.334938, 48.83592], "type": "Point"}, "properties": {"antenna": "3S-02-TSADM", "clock": "EXTERNAL UTC(OP)", "receiver": "ASHTECH Z-XII3T", "station": "OPMT"}, "type": "Feature"}, {"geometry": {"coordinates": [20.794048, 41.127311], "type": "Point"}, "properties": {"antenna": "LEIAR25.R4", "clock": "INTERNAL", "receiver": "LEICA GR30", "station": "ORID"}, "type": "Feature"}, {"geometry": {"coordinates": [127.033583, 37.082691], "type": "Point"}, "properties": {"antenna": "TPSCR.G5", "clock": "EXTERNAL CESIUM /RCVR1", "receiver": "ITT 3750300", "station": "OSN3"}, "type": "Feature"}, {"geometry": {"coordinates": [127.033583, 37.082691], "type": "Point"}, "properties": {"antenna": "TPSCR.G5", "clock": "EXTERNAL CESIUM /RCVR2", "receiver": "ITT 3750300", "station": "OSN4"}, "type": "Feature"}, {"geometry": {"coordinates": [170.510933, -45.869475], "type": "Point"}, "properties": {"antenna": "SEPCHOKE_B3E6", "clock": "INTERNAL", "receiver": "SEPT ASTERX4", "station": "OUS2"}, "type": "Feature"}, {"geometry": {"coordinates": [-176.3688, -44.024294], "type": "Point"}, "properties": {"antenna": "TRM59800.00", "clock": "INTERNAL", "receiver": "TRIMBLE ALLOY", "station": "OWMG"}, "type": "Feature"}, {"geometry": {"coordinates": [11.896056, 45.41115], "type": "Point"}, "properties": {"antenna": "STXSA1500", "clock": "INTERNAL", "receiver": "STONEX SC2200", "station": "PADO"}, "type": "Feature"}, {"geometry": {"coordinates": [-64.051122, -64.77509], "type": "Point"}, "properties": {"antenna": "ASH700936D_M", "clock": "INTERNAL", "receiver": "JAVAD TRE_G3TH DELTA", "station": "PALM"}, "type": "Feature"}, {"geometry": {"coordinates": [-70.879882, -53.136954], "type": "Point"}, "properties": {"antenna": "TRM57971.00", "clock": "INTERNAL", "receiver": "TRIMBLE ALLOY", "station": "PARC"}, "type": "Feature"}, {"geometry": {"coordinates": [148.264613, -32.998762], "type": "Point"}, "properties": {"antenna": "ASH701945C_M", "clock": "EXTERNAL H-MASER", "receiver": "SEPT POLARX5TR", "station": "PARK"}, "type": "Feature"}, {"geometry": {"coordinates": [92.712136, 11.63778], "type": "Point"}, "properties": {"antenna": "LEIAR25.R3", "clock": "EXTERNAL Cesium 5071A Standard performance", "receiver": "TRIMBLE ALLOY", "station": "PBRI"}, "type": "Feature"}, {"geometry": {"coordinates": [-25.662766, 37.747747], "type": "Point"}, "properties": {"antenna": "LEIAT504GG", "clock": "INTERNAL", "receiver": "LEICA GRX1200GGPRO", "station": "PDEL"}, "type": "Feature"}, {"geometry": {"coordinates": [19.281666, 47.789726], "type": "Point"}, "properties": {"antenna": "LEIAR20", "clock": "INTERNAL", "receiver": "LEICA GR50", "station": "PEN2"}, "type": "Feature"}, {"geometry": {"coordinates": [19.281523, 47.789601], "type": "Point"}, "properties": {"antenna": "LEIAT504GG", "clock": "INTERNAL", "receiver": "LEICA GRX1200GGPRO", "station": "PENC"}, "type": "Feature"}, {"geometry": {"coordinates": [115.885246, -31.801972], "type": "Point"}, "properties": {"antenna": "TRM59800.00", "clock": "INTERNAL", "receiver": "TRIMBLE NETR9", "station": "PERT"}, "type": "Feature"}, {"geometry": {"coordinates": [158.650134, 53.0233], "type": "Point"}, "properties": {"antenna": "ASH701933B_M", "clock": "INTERNAL", "receiver": "JAVAD TRE_G3TH DELTA", "station": "PETS"}, "type": "Feature"}, {"geometry": {"coordinates": [125.131662, 6.064912], "type": "Point"}, "properties": {"antenna": "LEIAR25", "clock": "INTERNAL", "receiver": "LEICA GR50", "station": "PGEN"}, "type": "Feature"}, {"geometry": {"coordinates": [-90.161974, 51.479809], "type": "Point"}, "properties": {"antenna": "TWIVC6150", "clock": "INTERNAL", "receiver": "SEPT POLARX5", "station": "PICL"}, "type": "Feature"}, {"geometry": {"coordinates": [-108.118927, 34.301506], "type": "Point"}, "properties": {"antenna": "ASH701945E_M", "clock": "EXTERNAL H-MASER", "receiver": "JAVAD TRE_3 DELTA", "station": "PIE1"}, "type": "Feature"}, {"geometry": {"coordinates": [121.077731, 14.63572], "type": "Point"}, "properties": {"antenna": "ASH701945C_M", "clock": "INTERNAL", "receiver": "JAVAD TRE_G3TH DELTA", "station": "PIMO"}, "type": "Feature"}, {"geometry": {"coordinates": [-116.458161, 33.612156], "type": "Point"}, "properties": {"antenna": "ASH701945B_M", "clock": "INTERNAL", "receiver": "TPS NET-G3A", "station": "PIN1"}, "type": "Feature"}, {"geometry": {"coordinates": [147.366012, -2.043231], "type": "Point"}, "properties": {"antenna": "TRM59800.00", "clock": "INTERNAL", "receiver": "TRIMBLE NETR9", "station": "PNGM"}, "type": "Feature"}, {"geometry": {"coordinates": [-51.119765, -30.074042], "type": "Point"}, "properties": {"antenna": "TRM115000.00", "clock": "INTERNAL ", "receiver": "TRIMBLE NETR9", "station": "POAL"}, "type": "Feature"}, {"geometry": {"coordinates": [158.210116, 6.959944], "type": "Point"}, "properties": {"antenna": "JAVRINGANT_DM", "clock": "INTERNAL", "receiver": "SEPT POLARX5", "station": "POHN"}, "type": "Feature"}, {"geometry": {"coordinates": [74.694264, 42.67977], "type": "Point"}, "properties": {"antenna": "TPSCR.G3", "clock": "INTERNAL", "receiver": "JAVAD TRE_3 DELTA", "station": "POL2"}, "type": "Feature"}, {"geometry": {"coordinates": [34.542929, 49.602613], "type": "Point"}, "properties": {"antenna": "LEIAR10", "clock": "INTERNAL", "receiver": "LEICA GR10", "station": "POLV"}, "type": "Feature"}, {"geometry": {"coordinates": [13.066091, 52.379297], "type": "Point"}, "properties": {"antenna": "JAVRINGANT_G5T", "clock": "INTERNAL", "receiver": "JAVAD TRE_3", "station": "POTS"}, "type": "Feature"}, {"geometry": {"coordinates": [-63.89632, -8.709335], "type": "Point"}, "properties": {"antenna": "TRM115000.00", "clock": "INTERNAL", "receiver": "TRIMBLE NETR9", "station": "POVE"}, "type": "Feature"}, {"geometry": {"coordinates": [118.740234, 9.772933], "type": "Point"}, "properties": {"antenna": "LEIAR25", "clock": "INTERNAL", "receiver": "LEICA GR50", "station": "PPPC"}, "type": "Feature"}, {"geometry": {"coordinates": [-114.293495, 50.871352], "type": "Point"}, "properties": {"antenna": "AOAD/M_T", "clock": "EXTERNAL H-MASER", "receiver": "JAVAD TRE_3N DELTA", "station": "PRDS"}, "type": "Feature"}, {"geometry": {"coordinates": [28.224043, -25.746496], "type": "Point"}, "properties": {"antenna": "TPSCR.G5", "clock": "EXTERNAL CESIUM /RCVR1", "receiver": "ITT 3750300", "station": "PRE3"}, "type": "Feature"}, {"geometry": {"coordinates": [28.224043, -25.746496], "type": "Point"}, "properties": {"antenna": "TPSCR.G5", "clock": "EXTERNAL CESIUM /RCVR2", "receiver": "ITT 3750300", "station": "PRE4"}, "type": "Feature"}, {"geometry": {"coordinates": [121.040765, 14.535442], "type": "Point"}, "properties": {"antenna": "LEIAR25.R4", "clock": "INTERNAL", "receiver": "LEICA GR50", "station": "PTAG"}, "type": "Feature"}, {"geometry": {"coordinates": [10.459744, 52.296188], "type": "Point"}, "properties": {"antenna": "LEIAR25.R4", "clock": "EXTERNAL ACTIVE H-MASER", "receiver": "SEPT POLARX5TR", "station": "PTBB"}, "type": "Feature"}, {"geometry": {"coordinates": [121.041265, 14.535402], "type": "Point"}, "properties": {"antenna": "TRM59800.00", "clock": "INTERNAL", "receiver": "SEPT POLARX5", "station": "PTGG"}, "type": "Feature"}, {"geometry": {"coordinates": [168.315024, -17.749433], "type": "Point"}, "properties": {"antenna": "JAVRINGANT_DM", "clock": "INTERNAL", "receiver": "TRIMBLE NETR9", "station": "PTVL"}, "type": "Feature"}, {"geometry": {"coordinates": [-46.047762, 60.715263], "type": "Point"}, "properties": {"antenna": "ASH701945E_M", "clock": "INTERNAL", "receiver": "SEPT POLARX5", "station": "QAQ1"}, "type": "Feature"}, {"geometry": {"coordinates": [-64.033665, 67.559339], "type": "Point"}, "properties": {"antenna": "ASH701945E_M", "clock": "INTERNAL", "receiver": "ASHTECH UZ-12", "station": "QIKI"}, "type": "Feature"}, {"geometry": {"coordinates": [-78.493608, -0.215157], "type": "Point"}, "properties": {"antenna": "TPSCR.G5", "clock": "EXTERNAL CESIUM /RCVR1", "receiver": "ITT 3750300", "station": "QUI3"}, "type": "Feature"}, {"geometry": {"coordinates": [-78.493608, -0.215157], "type": "Point"}, "properties": {"antenna": "TPSCR.G5", "clock": "EXTERNAL CESIUM /RCVR2", "receiver": "ITT 3750300", "station": "QUI4"}, "type": "Feature"}, {"geometry": {"coordinates": [-120.944429, 39.974554], "type": "Point"}, "properties": {"antenna": "ASH701945E_M", "clock": "INTERNAL", "receiver": "JAVAD TRE_3 DELTA", "station": "QUIN"}, "type": "Feature"}, {"geometry": {"coordinates": [-6.854289, 33.998104], "type": "Point"}, "properties": {"antenna": "TRM29659.00", "clock": "INTERNAL", "receiver": "JAVAD TRE_3 DELTA", "station": "RABT"}, "type": "Feature"}, {"geometry": {"coordinates": [-25.126389, 36.9857], "type": "Point"}, "properties": {"antenna": "LEIAR20", "clock": "EXTERNAL H-MASER", "receiver": "LEICA GR25", "station": "RAEG"}, "type": "Feature"}, {"geometry": {"coordinates": [34.76314, 30.59776], "type": "Point"}, "properties": {"antenna": "ASH701945B_M", "clock": "INTERNAL", "receiver": "JAVAD TRE_G3TH DELTA", "station": "RAMO"}, "type": "Feature"}, {"geometry": {"coordinates": [32.078385, -28.795546], "type": "Point"}, "properties": {"antenna": "TRM59800.00", "clock": "INTERNAL", "receiver": "TRIMBLE NETR9", "station": "RBAY"}, "type": "Feature"}, {"geometry": {"coordinates": [36.893475, -1.220829], "type": "Point"}, "properties": {"antenna": "LEIAT504GG", "clock": "EXTERNAL (INTERNAL OR EXTERNAL H-MASER/CESIUM/ETC)", "receiver": "LEICA GRX1200GGPRO", "station": "RCMN"}, "type": "Feature"}, {"geometry": {"coordinates": [-69.9113, 18.461398], "type": "Point"}, "properties": {"antenna": "TRM59800.00", "clock": "INTERNAL", "receiver": "TRIMBLE NETR9", "station": "RDSD"}, "type": "Feature"}, {"geometry": {"coordinates": [5.14488, 50.001501], "type": "Point"}, "properties": {"antenna": "SEPCHOKE_B3E6", "clock": "EXTERNAL CESIUM", "receiver": "SEPT POLARX5", "station": "REDU"}, "type": "Feature"}, {"geometry": {"coordinates": [-94.893336, 74.690826], "type": "Point"}, "properties": {"antenna": "ASH700936A_M", "clock": "INTERNAL", "receiver": "ASHTECH UZ-12", "station": "RESO"}, "type": "Feature"}, {"geometry": {"coordinates": [55.571719, -21.208226], "type": "Point"}, "properties": {"antenna": "TRM55971.00", "clock": "INTERNAL", "receiver": "SEPT POLARX5", "station": "REUN"}, "type": "Feature"}, {"geometry": {"coordinates": [-21.955484, 64.138782], "type": "Point"}, "properties": {"antenna": "LEIAR25.R4", "clock": "INTERNAL", "receiver": "LEICA GR50", "station": "REYK"}, "type": "Feature"}, {"geometry": {"coordinates": [-67.751528, -53.785839], "type": "Point"}, "properties": {"antenna": "TRM59800.00", "clock": "INTERNAL", "receiver": "TRIMBLE ALLOY", "station": "RGDG"}, "type": "Feature"}, {"geometry": {"coordinates": [24.058771, 56.948619], "type": "Point"}, "properties": {"antenna": "LEIAR25.R4", "clock": "INTERNAL", "receiver": "LEICA GR25", "station": "RIGA"}, "type": "Feature"}, {"geometry": {"coordinates": [-67.751118, -53.785472], "type": "Point"}, "properties": {"antenna": "SEPCHOKE_B3E6", "clock": "INTERNAL", "receiver": "SEPT ASTERX4", "station": "RIO2"}, "type": "Feature"}, {"geometry": {"coordinates": [-78.6511, -1.6506], "type": "Point"}, "properties": {"antenna": "TRM41249.00", "clock": "INTERNAL", "receiver": "TRIMBLE NETRS", "station": "RIOP"}, "type": "Feature"}, {"geometry": {"coordinates": [-6.206275, 36.463351], "type": "Point"}, "properties": {"antenna": "LEIAR25.R4", "clock": "EXTERNAL H-MASER", "receiver": "SEPT POLARX5TR", "station": "ROAG"}, "type": "Feature"}, {"geometry": {"coordinates": [-118.676431, 34.235674], "type": "Point"}, "properties": {"antenna": "TPSCR.G3", "clock": "INTERNAL", "receiver": "TPS NET-G3A", "station": "ROCK"}, "type": "Feature"}, {"geometry": {"coordinates": [-68.125756, -67.571394], "type": "Point"}, "properties": {"antenna": "LEIAR25", "clock": "INTERNAL ", "receiver": "LEICA GRX1200+GNSS", "station": "ROTH"}, "type": "Feature"}, {"geometry": {"coordinates": [-44.212479, -2.593458], "type": "Point"}, "properties": {"antenna": "TRM115000.00", "clock": "INTERNAL QUARTZ", "receiver": "TRIMBLE NETR9", "station": "SALU"}, "type": "Feature"}, {"geometry": {"coordinates": [-171.738421, -13.849211], "type": "Point"}, "properties": {"antenna": "JAVRINGANT_DM", "clock": "INTERNAL", "receiver": "TRIMBLE NETR9", "station": "SAMO"}, "type": "Feature"}, {"geometry": {"coordinates": [-70.668553, -33.150288], "type": "Point"}, "properties": {"antenna": "JAVRINGANT_DM", "clock": "INTERNAL", "receiver": "SEPT POLARX5", "station": "SANT"}, "type": "Feature"}, {"geometry": {"coordinates": [-106.398358, 52.196262], "type": "Point"}, "properties": {"antenna": "NOV750.R4", "clock": "INTERNAL", "receiver": "JAVAD TRE_G3TH DELTA", "station": "SASK"}, "type": "Feature"}, {"geometry": {"coordinates": [-38.432254, -12.939246], "type": "Point"}, "properties": {"antenna": "TRM115000.00", "clock": "INTERNAL QUARTZ", "receiver": "TRIMBLE NETR9", "station": "SAVO"}, "type": "Feature"}, {"geometry": {"coordinates": [17.879211, -29.669325], "type": "Point"}, "properties": {"antenna": "ASH701941.B", "clock": "INTERNAL", "receiver": "TRIMBLE NETRS", "station": "SBOK"}, "type": "Feature"}, {"geometry": {"coordinates": [-66.832614, 54.832089], "type": "Point"}, "properties": {"antenna": "ASH701945E_M", "clock": "INTERNAL", "receiver": "JAVAD TRE_3N DELTA", "station": "SCH2"}, "type": "Feature"}, {"geometry": {"coordinates": [-118.487933, 32.914425], "type": "Point"}, "properties": {"antenna": "TPSCR.G3", "clock": "INTERNAL", "receiver": "TPS NET-G3A", "station": "SCIP"}, "type": "Feature"}, {"geometry": {"coordinates": [-21.950337, 70.485333], "type": "Point"}, "properties": {"antenna": "ASH701941.B", "clock": "EXTERNAL RUBIDIUM", "receiver": "SEPT POLARX5", "station": "SCOR"}, "type": "Feature"}, {"geometry": {"coordinates": [-63.159674, -17.796791], "type": "Point"}, "properties": {"antenna": "LEIAR10", "clock": "INTERNAL ", "receiver": "LEICA GR10", "station": "SCRZ"}, "type": "Feature"}, {"geometry": {"coordinates": [166.758013, -77.848985], "type": "Point"}, "properties": {"antenna": "TRM115000.00", "clock": "INTERNAL ", "receiver": "TRIMBLE ALLOY", "station": "SCTB"}, "type": "Feature"}, {"geometry": {"coordinates": [-75.762316, 20.012063], "type": "Point"}, "properties": {"antenna": "JAV_RINGANT_G3T", "clock": "INTERNAL", "receiver": "JAVAD TRE_G3TH DELTA", "station": "SCUB"}, "type": "Feature"}, {"geometry": {"coordinates": [127.303193, 36.522212], "type": "Point"}, "properties": {"antenna": "TRM59800.00", "clock": "INTERNAL", "receiver": "TRIMBLE NETR9", "station": "SEJN"}, "type": "Feature"}, {"geometry": {"coordinates": [80.26591, 50.432695], "type": "Point"}, "properties": {"antenna": "LEIAR25.R4", "clock": "INTERNAL", "receiver": "LEICA GR10", "station": "SEME"}, "type": "Feature"}, {"geometry": {"coordinates": [55.479454, -4.673651], "type": "Point"}, "properties": {"antenna": "JAVRINGANT_DM", "clock": "INTERNAL", "receiver": "JAVAD TRE_G3TH DELTA", "station": "SEY2"}, "type": "Feature"}, {"geometry": {"coordinates": [55.530631, -4.678731], "type": "Point"}, "properties": {"antenna": "TRM59800.00", "clock": "INTERNAL", "receiver": "SEPT POLARX5", "station": "SEYG"}, "type": "Feature"}, {"geometry": {"coordinates": [-118.754505, 34.459805], "type": "Point"}, "properties": {"antenna": "ASH701945B_M", "clock": "INTERNAL", "receiver": "TRIMBLE NETRS", "station": "SFDM"}, "type": "Feature"}, {"geometry": {"coordinates": [-6.205647, 36.464344], "type": "Point"}, "properties": {"antenna": "LEIAR25", "clock": "EXTERNAL CESIUM", "receiver": "LEICA GR25", "station": "SFER"}, "type": "Feature"}, {"geometry": {"coordinates": [79.874177, 6.892075], "type": "Point"}, "properties": {"antenna": "JAVRINGANT_G5T", "clock": "INTERNAL", "receiver": "JAVAD TRE_3", "station": "SGOC"}, "type": "Feature"}, {"geometry": {"coordinates": [-97.484821, 36.604184], "type": "Point"}, "properties": {"antenna": "JAVRINGANT_G5T", "clock": "INTERNAL", "receiver": "JAVAD TRE_3", "station": "SGPO"}, "type": "Feature"}, {"geometry": {"coordinates": [121.200445, 31.099642], "type": "Point"}, "properties": {"antenna": "AOAD/M_T", "clock": "INTERNAL", "receiver": "ASHTECH UZ-12", "station": "SHAO"}, "type": "Feature"}, {"geometry": {"coordinates": [-64.55201, 46.220691], "type": "Point"}, "properties": {"antenna": "TRM29659.00", "clock": "INTERNAL", "receiver": "TRIMBLE NETR8", "station": "SHE2"}, "type": "Feature"}, {"geometry": {"coordinates": [103.679438, 1.342981], "type": "Point"}, "properties": {"antenna": "LEIAR25.R3", "clock": "INTERNAL", "receiver": "TRIMBLE NETR9", "station": "SIN1"}, "type": "Feature"}, {"geometry": {"coordinates": [135.936955, 33.577855], "type": "Point"}, "properties": {"antenna": "TRM57971.00", "clock": "EXTERNAL NONE", "receiver": "TRIMBLE NETR9", "station": "SMST"}, "type": "Feature"}, {"geometry": {"coordinates": [-119.524364, 33.247874], "type": "Point"}, "properties": {"antenna": "TPSCR.G3", "clock": "INTERNAL", "receiver": "TPS NET-G3A", "station": "SNI1"}, "type": "Feature"}, {"geometry": {"coordinates": [26.389287, 67.420787], "type": "Point"}, "properties": {"antenna": "JAVRINGANT_DM", "clock": "INTERNAL", "receiver": "JAVAD TRE_3 DELTA", "station": "SOD3"}, "type": "Feature"}, {"geometry": {"coordinates": [23.394729, 42.556093], "type": "Point"}, "properties": {"antenna": "LEIAR25.R3", "clock": "INTERNAL", "receiver": "LEICA GRX1200GGPRO", "station": "SOFI"}, "type": "Feature"}, {"geometry": {"coordinates": [159.954349, -9.434915], "type": "Point"}, "properties": {"antenna": "JAVRINGANT_DM", "clock": "INTERNAL", "receiver": "TRIMBLE NETR9", "station": "SOLO"}, "type": "Feature"}, {"geometry": {"coordinates": [-118.646161, 34.059343], "type": "Point"}, "properties": {"antenna": "TPSCR.G3", "clock": "INTERNAL", "receiver": "TPS NET-G3A", "station": "SPK1"}, "type": "Feature"}, {"geometry": {"coordinates": [12.891345, 57.714956], "type": "Point"}, "properties": {"antenna": "TRM59800.00", "clock": "EXTERNAL H-MASER", "receiver": "SEPT POLARX5TR", "station": "SPT0"}, "type": "Feature"}, {"geometry": {"coordinates": [-50.49237, -21.929118], "type": "Point"}, "properties": {"antenna": "TRM57971.00", "clock": "INTERNAL ", "receiver": "TRIMBLE NETR9", "station": "SPTU"}, "type": "Feature"}, {"geometry": {"coordinates": [-89.116202, 13.697257], "type": "Point"}, "properties": {"antenna": "TRM59800.80", "clock": "INTERNAL ", "receiver": "TRIMBLE NETR9", "station": "SSIA"}, "type": "Feature"}, {"geometry": {"coordinates": [-122.173291, 37.426907], "type": "Point"}, "properties": {"antenna": "TRM57971.00", "clock": "EXTERNAL RUBIDIUM", "receiver": "JAVAD TRE_G3TH DELTA", "station": "STFU"}, "type": "Feature"}, {"geometry": {"coordinates": [-5.667345, -15.942534], "type": "Point"}, "properties": {"antenna": "TPSCR.G3", "clock": "INTERNAL", "receiver": "JAVAD TRE_3 DELTA", "station": "STHL"}, "type": "Feature"}, {"geometry": {"coordinates": [-52.678308, 47.595435], "type": "Point"}, "properties": {"antenna": "LEIAR25.R4", "clock": "INTERNAL ", "receiver": "SEPT POLARX5TR", "station": "STJ3"}, "type": "Feature"}, {"geometry": {"coordinates": [-52.677748, 47.595239], "type": "Point"}, "properties": {"antenna": "AOAD/M_T", "clock": "INTERNAL", "receiver": "JAVAD TRE_3N DELTA", "station": "STJO"}, "type": "Feature"}, {"geometry": {"coordinates": [141.844818, 43.528644], "type": "Point"}, "properties": {"antenna": "TRM59800.00", "clock": "EXTERNAL CESIUM", "receiver": "TRIMBLE ALLOY", "station": "STK2"}, "type": "Feature"}, {"geometry": {"coordinates": [-56.168244, 46.777824], "type": "Point"}, "properties": {"antenna": "TRM57971.00", "clock": "INTERNAL", "receiver": "TRIMBLE NETR9", "station": "STPM"}, "type": "Feature"}, {"geometry": {"coordinates": [149.01005, -35.315539], "type": "Point"}, "properties": {"antenna": "ASH701945C_M", "clock": "EXTERNAL CESIUM", "receiver": "SEPT POLARX5", "station": "STR1"}, "type": "Feature"}, {"geometry": {"coordinates": [149.010152, -35.316166], "type": "Point"}, "properties": {"antenna": "LEIAR25.R3", "clock": "INTERNAL", "receiver": "TRIMBLE ALLOY", "station": "STR2"}, "type": "Feature"}, {"geometry": {"coordinates": [24.014488, 49.835589], "type": "Point"}, "properties": {"antenna": "TPSCR.G5", "clock": "INTERNAL", "receiver": "TRIMBLE NETR9", "station": "SULP"}, "type": "Feature"}, {"geometry": {"coordinates": [20.810462, -32.380211], "type": "Point"}, "properties": {"antenna": "ASH701945G_M", "clock": "INTERNAL", "receiver": "SEPT POLARX5", "station": "SUTH"}, "type": "Feature"}, {"geometry": {"coordinates": [20.81091, -32.381435], "type": "Point"}, "properties": {"antenna": "JAVRINGANT_G5T", "clock": "INTERNAL", "receiver": "JAVAD TRE_3", "station": "SUTM"}, "type": "Feature"}, {"geometry": {"coordinates": [127.054238, 37.275516], "type": "Point"}, "properties": {"antenna": "TRM59800.80", "clock": "EXTERNAL CESIUM", "receiver": "TRIMBLE NETR9", "station": "SUWN"}, "type": "Feature"}, {"geometry": {"coordinates": [29.780873, 60.532855], "type": "Point"}, "properties": {"antenna": "JAVRINGANT_DM", "clock": "EXTERNAL H-MASER CH1-80", "receiver": "JAVAD TRE_3 DELTA", "station": "SVTL"}, "type": "Feature"}, {"geometry": {"coordinates": [151.150377, -33.780885], "type": "Point"}, "properties": {"antenna": "ASH701945C_M", "clock": "EXTERNAL CESIUM", "receiver": "SEPT POLARX4TR", "station": "SYDN"}, "type": "Feature"}, {"geometry": {"coordinates": [39.583744, -69.006957], "type": "Point"}, "properties": {"antenna": "TRM159900.00", "clock": "EXTERNAL CESIUM", "receiver": "TRIMBLE ALLOY", "station": "SYOG"}, "type": "Feature"}, {"geometry": {"coordinates": [-117.678282, 34.381849], "type": "Point"}, "properties": {"antenna": "TRM57971.00", "clock": "INTERNAL", "receiver": "TRIMBLE NETR9", "station": "TABL"}, "type": "Feature"}, {"geometry": {"coordinates": [37.329106, 11.569072], "type": "Point"}, "properties": {"antenna": "LEIAR25.R4", "clock": "INTERNAL ", "receiver": "LEICA GR25", "station": "TANA"}, "type": "Feature"}, {"geometry": {"coordinates": [69.295566, 41.328049], "type": "Point"}, "properties": {"antenna": "SEPCHOKE_B3E6", "clock": "EXTERNAL RUBIDIUM", "receiver": "SEPT ASTERX4", "station": "TASH"}, "type": "Feature"}, {"geometry": {"coordinates": [120.987389, 24.797986], "type": "Point"}, "properties": {"antenna": "LEIAT504", "clock": "INTERNAL", "receiver": "LEICA RS500", "station": "TCMS"}, "type": "Feature"}, {"geometry": {"coordinates": [30.384007, -23.07991], "type": "Point"}, "properties": {"antenna": "LEIAT504", "clock": "INTERNAL", "receiver": "TRIMBLE NETRS", "station": "TDOU"}, "type": "Feature"}, {"geometry": {"coordinates": [51.334092, 35.697281], "type": "Point"}, "properties": {"antenna": "TRM57971.00", "clock": "INTERNAL", "receiver": "TRIMBLE NETR9", "station": "TEHN"}, "type": "Feature"}, {"geometry": {"coordinates": [-149.606442, -17.577064], "type": "Point"}, "properties": {"antenna": "LEIAR25.R3", "clock": "EXTERNAL CESIUM", "receiver": "SEPT POLARX5TR", "station": "THTG"}, "type": "Feature"}, {"geometry": {"coordinates": [-149.606445, -17.577058], "type": "Point"}, "properties": {"antenna": "ASH701945E_M", "clock": "INTERNAL", "receiver": "TRIMBLE NETR8", "station": "THTI"}, "type": "Feature"}, {"geometry": {"coordinates": [-68.825031, 76.537048], "type": "Point"}, "properties": {"antenna": "ASH701073.1", "clock": "INTERNAL", "receiver": "SEPT POLARX5", "station": "THU2"}, "type": "Feature"}, {"geometry": {"coordinates": [148.979996, -35.39921], "type": "Point"}, "properties": {"antenna": "AOAD/M_T", "clock": "EXTERNAL H-MASER", "receiver": "SEPT POLARX5", "station": "TID1"}, "type": "Feature"}, {"geometry": {"coordinates": [148.979998, -35.399205], "type": "Point"}, "properties": {"antenna": "AOAD/M_T", "clock": "EXTERNAL H-MASER", "receiver": "ASHTECH UZ-12", "station": "TIDB"}, "type": "Feature"}, {"geometry": {"coordinates": [6.431581, 51.035234], "type": "Point"}, "properties": {"antenna": "LEIAR25.R4", "clock": "INTERNAL", "receiver": "JAVAD TRE_3 DELTA", "station": "TIT2"}, "type": "Feature"}, {"geometry": {"coordinates": [128.866415, 71.634474], "type": "Point"}, "properties": {"antenna": "TPSCR3_GGD", "clock": "INTERNAL", "receiver": "JPS EGGDT", "station": "TIXI"}, "type": "Feature"}, {"geometry": {"coordinates": [1.480872, 43.560694], "type": "Point"}, "properties": {"antenna": "TRM59800.00", "clock": "INTERNAL", "receiver": "TRIMBLE NETR9", "station": "TLSE"}, "type": "Feature"}, {"geometry": {"coordinates": [1.485042, 43.549713], "type": "Point"}, "properties": {"antenna": "TRM59800.00", "clock": "EXTERNAL CESIUM", "receiver": "SEPT POLARX5TR", "station": "TLSG"}, "type": "Feature"}, {"geometry": {"coordinates": [120.987344, 24.797955], "type": "Point"}, "properties": {"antenna": "AOAD/M_T", "clock": "EXTERNAL RUBIDIUM", "receiver": "AOA BENCHMARK ACT", "station": "TNML"}, "type": "Feature"}, {"geometry": {"coordinates": [-175.179223, -21.144713], "type": "Point"}, "properties": {"antenna": "TRM59800.00", "clock": "INTERNAL", "receiver": "SEPT POLARX5", "station": "TONG"}, "type": "Feature"}, {"geometry": {"coordinates": [-48.330679, -10.171052], "type": "Point"}, "properties": {"antenna": "TRM115000.00", "clock": "INTERNAL ", "receiver": "TRIMBLE NETR9", "station": "TOPL"}, "type": "Feature"}, {"geometry": {"coordinates": [-118.330604, 33.797798], "type": "Point"}, "properties": {"antenna": "TPSCR.G3", "clock": "INTERNAL", "receiver": "TPS NET-G3A", "station": "TORP"}, "type": "Feature"}, {"geometry": {"coordinates": [147.055685, -19.269286], "type": "Point"}, "properties": {"antenna": "LEIAR25.R3", "clock": "INTERNAL", "receiver": "SEPT POLARX5", "station": "TOW2"}, "type": "Feature"}, {"geometry": {"coordinates": [-117.803439, 33.617937], "type": "Point"}, "properties": {"antenna": "TPSCR.G3", "clock": "INTERNAL", "receiver": "TPS NET-G3A", "station": "TRAK"}, "type": "Feature"}, {"geometry": {"coordinates": [18.939631, 69.662714], "type": "Point"}, "properties": {"antenna": "TRM59800.00", "clock": "EXTERNAL RUBIDIUM", "receiver": "TRIMBLE NETR9", "station": "TRO1"}, "type": "Feature"}, {"geometry": {"coordinates": [140.087116, 36.105576], "type": "Point"}, "properties": {"antenna": "TRM59800.00", "clock": "EXTERNAL H-MASER", "receiver": "TRIMBLE NETR9", "station": "TSK2"}, "type": "Feature"}, {"geometry": {"coordinates": [140.087497, 36.10568], "type": "Point"}, "properties": {"antenna": "AOAD/M_T", "clock": "EXTERNAL CESIUM", "receiver": "TRIMBLE NETR9", "station": "TSKB"}, "type": "Feature"}, {"geometry": {"coordinates": [29.450675, 40.786727], "type": "Point"}, "properties": {"antenna": "TRM29659.00", "clock": "INTERNAL", "receiver": "TRIMBLE 5700", "station": "TUBI"}, "type": "Feature"}, {"geometry": {"coordinates": [179.196561, -8.525291], "type": "Point"}, "properties": {"antenna": "JAVRINGANT_DM", "clock": "INTERNAL", "receiver": "TRIMBLE NETR9", "station": "TUVA"}, "type": "Feature"}, {"geometry": {"coordinates": [121.164459, 24.953576], "type": "Point"}, "properties": {"antenna": "ASH701945C_M", "clock": "EXTERNAL STEERED H-MASER", "receiver": "SEPT POLARX4TR", "station": "TWTF"}, "type": "Feature"}, {"geometry": {"coordinates": [-114.13385, 51.079974], "type": "Point"}, "properties": {"antenna": "TRM57971.00", "clock": "INTERNAL", "receiver": "TRIMBLE NETR9", "station": "UCAL"}, "type": "Feature"}, {"geometry": {"coordinates": [-118.44191, 34.069121], "type": "Point"}, "properties": {"antenna": "TPSCR.G3", "clock": "INTERNAL", "receiver": "TPS NET-G3A", "station": "UCLP"}, "type": "Feature"}, {"geometry": {"coordinates": [-125.54164, 48.925638], "type": "Point"}, "properties": {"antenna": "SEPCHOKE_B3E6", "clock": "INTERNAL CLOCK", "receiver": "SEPT POLARX5", "station": "UCLU"}, "type": "Feature"}, {"geometry": {"coordinates": [-49.230955, -25.448367], "type": "Point"}, "properties": {"antenna": "TRM115000.00", "clock": "INTERNAL", "receiver": "TRIMBLE NETR9", "station": "UFPR"}, "type": "Feature"}, {"geometry": {"coordinates": [107.05233, 47.865067], "type": "Point"}, "properties": {"antenna": "JAVRINGANT_G5T", "clock": "INTERNAL", "receiver": "JAVAD TRE_3", "station": "ULAB"}, "type": "Feature"}, {"geometry": {"coordinates": [31.420924, -28.293118], "type": "Point"}, "properties": {"antenna": "ASH701941.B", "clock": "INTERNAL ", "receiver": "TRIMBLE NETR9", "station": "ULDI"}, "type": "Feature"}, {"geometry": {"coordinates": [-66.641704, 45.950209], "type": "Point"}, "properties": {"antenna": "TRM57971.00", "clock": "INTERNAL", "receiver": "TRIMBLE ALLOY", "station": "UNB3"}, "type": "Feature"}, {"geometry": {"coordinates": [-66.641495, 45.950123], "type": "Point"}, "properties": {"antenna": "TRM55971.00", "clock": "INTERNAL", "receiver": "JAVAD TRE_G2T DELTA", "station": "UNBD"}, "type": "Feature"}, {"geometry": {"coordinates": [-66.641706, 45.950209], "type": "Point"}, "properties": {"antenna": "TRM57971.00", "clock": "INTERNAL", "receiver": "TPS LEGACY", "station": "UNBJ"}, "type": "Feature"}, {"geometry": {"coordinates": [-66.641704, 45.950209], "type": "Point"}, "properties": {"antenna": "TRM57971.00", "clock": "INTERNAL", "receiver": "NOV OEM6", "station": "UNBN"}, "type": "Feature"}, {"geometry": {"coordinates": [-65.407643, -24.727457], "type": "Point"}, "properties": {"antenna": "SEPCHOKE_B3E6", "clock": "INTERNAL", "receiver": "SEPT ASTERX4", "station": "UNSA"}, "type": "Feature"}, {"geometry": {"coordinates": [151.231874, -33.917767], "type": "Point"}, "properties": {"antenna": "LEIAR25.R3", "clock": "INTERNAL", "receiver": "JAVAD TRE_G3TH DELTA", "station": "UNX2"}, "type": "Feature"}, {"geometry": {"coordinates": [151.231874, -33.917767], "type": "Point"}, "properties": {"antenna": "LEIAR25.R3", "clock": "INTERNAL", "receiver": "SEPT POLARX4", "station": "UNX3"}, "type": "Feature"}, {"geometry": {"coordinates": [60.614859, 56.838275], "type": "Point"}, "properties": {"antenna": "CHCC220GR2", "clock": "INTERNAL", "receiver": "TRIMBLE R9S", "station": "URAL"}, "type": "Feature"}, {"geometry": {"coordinates": [87.600671, 43.80795], "type": "Point"}, "properties": {"antenna": "JAVRINGANT_G5T", "clock": "INTERNAL", "receiver": "JAVAD TRE_3", "station": "URUM"}, "type": "Feature"}, {"geometry": {"coordinates": [-77.066277, 38.920566], "type": "Point"}, "properties": {"antenna": "TPSCR.G5", "clock": "EXTERNAL H-MASER", "receiver": "SEPT POLARX5TR", "station": "USN7"}, "type": "Feature"}, {"geometry": {"coordinates": [-77.066277, 38.920566], "type": "Point"}, "properties": {"antenna": "TPSCR.G5", "clock": "EXTERNAL H-MASER", "receiver": "SEPT POLARX5TR", "station": "USN8"}, "type": "Feature"}, {"geometry": {"coordinates": [-77.066277, 38.920566], "type": "Point"}, "properties": {"antenna": "TPSCR.G5", "clock": "EXTERNAL H-MASER", "receiver": "NOV OEM6", "station": "USN9"}, "type": "Feature"}, {"geometry": {"coordinates": [-77.066225, 38.918963], "type": "Point"}, "properties": {"antenna": "AOAD/M_T", "clock": "EXTERNAL STEERED H-MASER", "receiver": "ASHTECH Z-XII3T", "station": "USNO"}, "type": "Feature"}, {"geometry": {"coordinates": [178.446371, -18.149086], "type": "Point"}, "properties": {"antenna": "HXCCGX601A", "clock": "INTERNAL", "receiver": "PANDA PD51A", "station": "USP1"}, "type": "Feature"}, {"geometry": {"coordinates": [138.362044, 36.13311], "type": "Point"}, "properties": {"antenna": "AOAD/M_T", "clock": "EXTERNAL H-MASER", "receiver": "SEPT POLARX5", "station": "USUD"}, "type": "Feature"}, {"geometry": {"coordinates": [-156.615015, 71.322755], "type": "Point"}, "properties": {"antenna": "JAV_GRANT-G3T", "clock": "INTERNAL", "receiver": "JAVAD TR_G3TH", "station": "UTQI"}, "type": "Feature"}, {"geometry": {"coordinates": [22.297616, 48.631976], "type": "Point"}, "properties": {"antenna": "NOV702GG", "clock": "INTERNAL", "receiver": "NOV OEMV3", "station": "UZHL"}, "type": "Feature"}, {"geometry": {"coordinates": [57.497037, -20.297091], "type": "Point"}, "properties": {"antenna": "JAVRINGANT_DM", "clock": "INTERNAL", "receiver": "SEPT POLARX5", "station": "VACS"}, "type": "Feature"}, {"geometry": {"coordinates": [-77.564166, 48.097057], "type": "Point"}, "properties": {"antenna": "TPSCR.G3", "clock": "INTERNAL", "receiver": "TPS NET-G5", "station": "VALD"}, "type": "Feature"}, {"geometry": {"coordinates": [-3.951982, 40.443591], "type": "Point"}, "properties": {"antenna": "SEPCHOKE_B3E6", "clock": "EXTERNAL CESIUM", "receiver": "SEPT POLARX5", "station": "VILL"}, "type": "Feature"}, {"geometry": {"coordinates": [18.367312, 57.653867], "type": "Point"}, "properties": {"antenna": "AOAD/M_T", "clock": "INTERNAL", "receiver": "SEPT POLARX5", "station": "VIS0"}, "type": "Feature"}, {"geometry": {"coordinates": [-120.616449, 34.556311], "type": "Point"}, "properties": {"antenna": "TRM59800.00", "clock": "INTERNAL", "receiver": "TRIMBLE NETR9", "station": "VNDP"}, "type": "Feature"}, {"geometry": {"coordinates": [46.793268, -21.906301], "type": "Point"}, "properties": {"antenna": "JAV_RINGANT_G3T", "clock": "INTERNAL", "receiver": "JAVAD TR_G3TH", "station": "VOIM"}, "type": "Feature"}, {"geometry": {"coordinates": [7.464255, 46.923751], "type": "Point"}, "properties": {"antenna": "SEPCHOKE_B3E6", "clock": "EXTERNAL UTC(CH) Master Clock", "receiver": "SEPT POLARX5TR", "station": "WAB2"}, "type": "Feature"}, {"geometry": {"coordinates": [174.66278, -36.434411], "type": "Point"}, "properties": {"antenna": "TRM115000.00", "clock": "EXTERNAL H-MASER", "receiver": "TRIMBLE ALLOY", "station": "WARK"}, "type": "Feature"}, {"geometry": {"coordinates": [12.101429, 54.16979], "type": "Point"}, "properties": {"antenna": "LEIAR25.R4", "clock": "INTERNAL", "receiver": "JAVAD TRE_3 DELTA", "station": "WARN"}, "type": "Feature"}, {"geometry": {"coordinates": [-77.066316, 38.920564], "type": "Point"}, "properties": {"antenna": "TPSCR.G5", "clock": "EXTERNAL H-MASER", "receiver": "ITT 3750300", "station": "WDC5"}, "type": "Feature"}, {"geometry": {"coordinates": [-77.066316, 38.920564], "type": "Point"}, "properties": {"antenna": "TPSCR.G5", "clock": "EXTERNAL H-MASER", "receiver": "ITT 3750300", "station": "WDC6"}, "type": "Feature"}, {"geometry": {"coordinates": [-71.493327, 42.613336], "type": "Point"}, "properties": {"antenna": "TPSCR4", "clock": "EXTERNAL H-MASER", "receiver": "SEPT POLARX5", "station": "WES2"}, "type": "Feature"}, {"geometry": {"coordinates": [174.805893, -41.323456], "type": "Point"}, "properties": {"antenna": "TRM115000.00", "clock": "INTERNAL ", "receiver": "TRIMBLE ALLOY", "station": "WGTN"}, "type": "Feature"}, {"geometry": {"coordinates": [-118.031169, 33.979885], "type": "Point"}, "properties": {"antenna": "TPSCR.G3", "clock": "INTERNAL", "receiver": "TPS NET-G3A", "station": "WHC1"}, "type": "Feature"}, {"geometry": {"coordinates": [-135.222112, 60.750513], "type": "Point"}, "properties": {"antenna": "AOAD/M_T", "clock": "INTERNAL", "receiver": "TPS NET-G3A", "station": "WHIT"}, "type": "Feature"}, {"geometry": {"coordinates": [-116.391781, 33.934757], "type": "Point"}, "properties": {"antenna": "TRM57971.00", "clock": "INTERNAL", "receiver": "TRIMBLE NETR9", "station": "WIDC"}, "type": "Feature"}, {"geometry": {"coordinates": [-122.16781, 52.236869], "type": "Point"}, "properties": {"antenna": "TRM59800.00", "clock": "INTERNAL", "receiver": "TRIMBLE NETR9", "station": "WILL"}, "type": "Feature"}, {"geometry": {"coordinates": [17.089432, -22.57492], "type": "Point"}, "properties": {"antenna": "JAVRINGANT_G5T", "clock": "INTERNAL", "receiver": "JAVAD TRE_3", "station": "WIND"}, "type": "Feature"}, {"geometry": {"coordinates": [-118.055913, 34.226121], "type": "Point"}, "properties": {"antenna": "TPSCR.G3", "clock": "INTERNAL", "receiver": "TPS NET-G3A", "station": "WLSN"}, "type": "Feature"}, {"geometry": {"coordinates": [17.062028, 51.113264], "type": "Point"}, "properties": {"antenna": "LEIAR25.R4", "clock": "INTERNAL", "receiver": "LEICA GR50", "station": "WROC"}, "type": "Feature"}, {"geometry": {"coordinates": [6.604501, 52.914601], "type": "Point"}, "properties": {"antenna": "AOAD/M_T", "clock": "INTERNAL", "receiver": "SEPT POLARX5", "station": "WSRT"}, "type": "Feature"}, {"geometry": {"coordinates": [12.878626, 49.144786], "type": "Point"}, "properties": {"antenna": "LEIAR25.R3", "clock": "EXTERNAL H-MASER EFOS 39", "receiver": "JAVAD TRE_G3TH DELTA", "station": "WTZ3"}, "type": "Feature"}, {"geometry": {"coordinates": [12.878901, 49.144224], "type": "Point"}, "properties": {"antenna": "ASH700936C_M", "clock": "EXTERNAL CESIUM", "receiver": "SEPT POLARX2", "station": "WTZA"}, "type": "Feature"}, {"geometry": {"coordinates": [12.878908, 49.144197], "type": "Point"}, "properties": {"antenna": "LEIAR25.R3", "clock": "EXTERNAL H-MASER EFOS 18", "receiver": "LEICA GR50", "station": "WTZR"}, "type": "Feature"}, {"geometry": {"coordinates": [12.878626, 49.144786], "type": "Point"}, "properties": {"antenna": "LEIAR25.R3", "clock": "EXTERNAL CESIUM", "receiver": "SEPT POLARX5TR", "station": "WTZS"}, "type": "Feature"},